pKey,JobStartDate,JobEndDate,APINumber,StateNumber,CountyNumber,OperatorName,WellName,Latitude,Longitude,Projection,TVD,TotalBaseWaterVolume,TotalBaseNonWaterVolume,StateName,CountyName,FFVersion,FederalWell,IndianWell,Source,DTMOD
243fecf0-b744-4ccb-8208-f5e87209e733,9/21/2022 6:00,10/14/2022 6:00,5.12351E+12,5,123,Nickel Road Operating LLC,Elder 8Y-HNC,40.587121,-104.638663,NAD83,7129,20005037,0,Colorado,Weld,3,FALSE,FALSE,,
b95b2699-6bac-42b9-870a-f918c3db653e,9/21/2022 6:00,10/14/2022 6:00,5.12351E+12,5,123,Nickel Road Operating LLC,Elder 7Y-HNB,40.587039,-104.638664,NAD83,7083,20118504,0,Colorado,Weld,3,FALSE,FALSE,,
0af41a94-d2bc-4753-864e-2c7bf6c2029f,9/21/2022 6:00,10/14/2022 6:00,5.12351E+12,5,123,Nickel Road Operating LLC,Elder 8Y-HNA,40.587079,-104.638663,NAD83,6976,20013640,0,Colorado,Weld,3,FALSE,FALSE,,
1a0a6aac-fdc7-41d9-afc3-b1bcce4e70bb,10/3/2022 6:00,10/14/2022 6:00,3.3061E+13,33,61,Whiting Petroleum,LITTLEFIELD  11 21H,48.0649,-102.3949,NAD27,10281.36,9226035,0,North Dakota,Mountrail,3,FALSE,FALSE,,
a5060adc-7155-4828-ad11-f35ff5b91c5d,9/18/2022 6:00,10/14/2022 6:00,4.23014E+13,42,301,MEWBOURNE OIL COMPANY,GOODNIGHT 10 11 B B101MD,31.930889,-103.346518,NAD27,10330,21043218,0,Texas,Loving,3,FALSE,FALSE,,
ab423477-bca1-4b30-a882-e089b9b59399,10/9/2022 17:47,10/14/2022 14:01,3.50513E+13,35,51,"Camino Natural Resources, LLC",Wheelock 1106 33-1MH,35.37808775,-97.84589321,NAD27,9598,11665878,0,Oklahoma,Grady,3,FALSE,FALSE,,
721df1ea-b501-4ffe-ab50-fdbc16c5fac8,10/6/2022 13:48,10/14/2022 16:12,3.00155E+13,30,15,Marathon Oil ,Honey Mustard 22 WXY Fed Com 8H,32.19686671,-104.0824807,NAD27,9544,18150930,0,New Mexico,Eddy,3,FALSE,FALSE,,
8f57b9f4-dbc2-43d8-b1f3-4f9960cf7301,10/6/2022 17:32,10/14/2022 19:23,3.00155E+13,30,15,Marathon Oil ,Honey Mustard 22 WXY Fed Com 6H,32.19685509,-104.0766929,NAD27,9547,18276174,0,New Mexico,Eddy,3,FALSE,FALSE,,
54aaaa9f-63e8-40e3-8124-61bf4090f494,10/14/2022 10:04,10/14/2022 19:28,4.21034E+13,42,103,Slant Operating ,JB Tubb AC 1 504,31.494947,-102.595986,NAD83,5343,345626,23470,Texas,Crane,3,FALSE,FALSE,,
28d74e86-deaa-4c89-9b8a-77684a5e2677,8/30/2022 15:23,10/14/2022 21:00,4.22274E+13,42,227,SM Energy,Buttercup 2724LS,32.377062,-101.414521,NAD27,6866.209,45326400,0,Texas,Howard,3,FALSE,FALSE,,
b353f229-698b-4164-83e2-56c51b169794,9/5/2022 10:04,10/14/2022 22:44,4.23894E+13,42,389,"PRI Operating, LLC",Redfish Unit 12A #32H,31.258962,-103.162648,NAD83,9772,28947457,1461047,Texas,Reeves,3,FALSE,FALSE,,
dd6a57e7-6ce3-477c-ae35-ce8f38362cac,10/14/2022 8:00,10/14/2022 22:45,4.21034E+13,42,103,"Ring Energy, Inc.",Mcknight MB 0306S,31.53967,-102.69376,NAD83,4160,1124466,68208,Texas,Crane,3,FALSE,FALSE,,
82bb5f84-ec89-42f8-861b-d52c188368f4,8/31/2022 12:59,10/15/2022 0:08,4.22274E+13,42,227,SM Energy,Buttercup 2743WA,32.377042,-101.414915,NAD27,7245.168,45301872,0,Texas,Howard,3,FALSE,FALSE,,
5e469e8c-1358-430d-a201-3ae8a80f9dc5,10/14/2022 16:27,10/15/2022 1:03,3.50032E+13,35,3,Mach Resources,Constantin 34-28-12 2H,36.86914305,-98.48129181,NAD83,5257,1329678,0,Oklahoma,Alfalfa,3,FALSE,FALSE,,
0258f626-bbd7-4dad-bef4-0b17e4f9d7be,10/13/2022 5:31,10/15/2022 1:03,4.90095E+13,49,9,Devon Energy Production Company L. P.,Rankin Fed 21-283668-4XTPH,43.088104,-105.016017,NAD83,6400,3457286,0,Wyoming,Converse,3,FALSE,FALSE,,
728bd557-226a-4a70-b81c-5301673c140b,8/31/2022 19:54,10/15/2022 2:45,4.22274E+13,42,227,SM Energy,Buttercup 2723LS,32.377022,-101.415009,NAD27,6873.406,45303468,0,Texas,Howard,3,FALSE,FALSE,,
5610411a-48f9-4584-82ea-a2dc567e7acc,10/7/2022 4:00,10/15/2022 4:00,3.71312E+13,37,131,BKV Operating LLC,P&G 3 11H,41.57944,-76.05617,NAD83,7668,4970480.76,0,Pennsylvania,Wyoming,3,FALSE,FALSE,,
fea108c5-99ed-45b2-8d4d-e155e532f51c,10/9/2022 5:00,10/15/2022 5:00,1.70313E+13,17,31,"EXCO Resources, Inc.",AMSOUTH TR FD LLC 5 002-ALT,32.137089,-93.612042,NAD83,12480.6,13359772,0,Louisiana,De Soto,3,FALSE,FALSE,,
0fa62dee-9f0c-4a5c-a3ed-cfc98a1f2093,9/29/2022 5:00,10/15/2022 5:00,4.21633E+13,42,163,"Trinity Operating (USG), LLC",MIDWAY J 130H,28.6823,-99.3657,NAD27,7110,19867196,0,Texas,Frio,3,FALSE,FALSE,,
06040dbc-89c7-4875-a796-b7ba7b61bee4,9/29/2022 5:00,10/15/2022 5:00,4.21633E+13,42,163,"Trinity Operating (USG), LLC",MIDWAY J  131H,28.6822,-99.3657,NAD27,7151,20648969,0,Texas,Frio,3,FALSE,FALSE,,
f422d037-af8b-4070-9b3f-a086dfecc071,9/30/2022 5:00,10/15/2022 5:00,4.21633E+13,42,163,"Trinity Operating (USG), LLC",MIDWAY J 132H,28.6821,-99.3658,NAD27,7172,18943137,0,Texas,Frio,3,FALSE,FALSE,,
4c326e55-1dcd-4258-8bd2-da650892b1c2,10/15/2022 5:00,10/15/2022 5:00,4.23933E+13,42,393,"Hadaway Consulting and Engineering, LLC",Leona 6A #2,35.9194972,-100.7417306,NAD27,7310,192125,0,Texas,Roberts,3,FALSE,FALSE,,
097fd9d6-00c8-45b5-8147-6b4883ca793e,8/31/2022 23:44,10/15/2022 5:39,4.22274E+13,42,227,SM Energy,Buttercup 2742WA,32.3770022,-101.415104,NAD27,7247.144,45391332,0,Texas,Howard,3,FALSE,FALSE,,
c2d92ebe-8930-4ab1-95c0-25fb9733c678,10/11/2022 6:00,10/15/2022 6:00,5.06707E+12,5,67,SIMCOE LLC,Grace Cowen A 1,37.2176,-107.82,WGS84,2595,172979,0,Colorado,La Plata,3,FALSE,FALSE,,
f83e0da3-e439-4f88-bcf7-5f4ffc57b4cb,10/5/2022 6:00,10/15/2022 6:00,5.12346E+12,5,123,PDC Energy,Ferguson 23E-232,40.38616,-104.52489,NAD83,6496,6379183,0,Colorado,Weld,3,FALSE,FALSE,,
2274a2e8-aed6-4f74-a150-54e7013b57cb,10/5/2022 6:00,10/15/2022 6:00,5.12346E+12,5,123,PDC Energy,Ferguson 23F-302,40.38604,-104.52489,NAD83,6570,6705526,0,Colorado,Weld,3,FALSE,FALSE,,
1515a4fe-bfab-45b6-8cd0-76f66464f41d,10/5/2022 6:00,10/15/2022 6:00,5.12346E+12,5,123,PDC Energy,Ferguson 23F-202,40.38599,-104.52489,NAD83,6462,6712130,0,Colorado,Weld,3,FALSE,FALSE,,
cf91e48f-c3da-4260-8c77-e396b4732c1e,10/5/2022 6:00,10/15/2022 6:00,5.12346E+12,5,123,PDC Energy,Ferguson 23F-212,40.38608,-104.52489,NAD83,6486,6770152,0,Colorado,Weld,3,FALSE,FALSE,,
fa79c39d-2d4c-4ddf-b06d-4d9df9f96019,10/5/2022 6:00,10/15/2022 6:00,5.12346E+12,5,123,PDC Energy,Ferguson 23E-332,40.38612,-104.52489,NAD83,6558,6391833,0,Colorado,Weld,3,FALSE,FALSE,,
d62a9eb4-5a0b-48bd-b254-3eba9c69c689,10/14/2022 13:52,10/15/2022 11:53,4.22354E+13,42,235,Ganador Operaing LLC,Sugg 3060 #12,31.394598,-100.946706,NAD83,6540,820389,0,Texas,Irion,3,FALSE,FALSE,,
a137cb56-a986-45a0-9a0d-d58f35f599a1,9/16/2022 22:22,10/15/2022 12:43,4.7103E+13,47,103,Antero Resources Corporation,CAVATICA UNIT 2H,39.52605,-80.762008,NAD83,6904,30619371,0,West Virginia,Wetzel,3,FALSE,FALSE,,
13383073-7109-4020-9e09-05b1001670fd,9/17/2022 2:00,10/15/2022 17:57,4.7103E+13,47,103,Antero Resources Corporation,BALDY UNIT 2H,39.525967,-80.762003,NAD83,6935,30582510,0,West Virginia,Wetzel,3,FALSE,FALSE,,
530dfb92-2502-4980-a933-cc718c3682b3,10/15/2022 13:22,10/15/2022 23:43,4.21034E+13,42,103,"Ring Energy, Inc.",Mcknight MB 460H,31.553946,-102.694007,NAD83,4830,1099913,63907,Texas,Crane,3,FALSE,FALSE,,
af6d19d5-fd7f-4caf-b786-2b8c043fa195,9/30/2022 6:00,10/16/2022 0:00,3.00155E+13,30,15,"Novo Oil & Gas Texas, LLC",Ovation Fed Com 1318 134H,32.299531,-104.048584,NAD27,9076,22150128,0,New Mexico,Eddy,3,TRUE,FALSE,,
83225ffd-d6f5-4f4a-a053-13e6552a8857,9/30/2022 6:00,10/16/2022 0:00,3.00155E+13,30,15,"Novo Oil & Gas Texas, LLC",Ovation Fed Com 1318 213H,32.299532,-104.048714,NAD27,9170,21423444,0,New Mexico,Eddy,3,TRUE,FALSE,,
1889acaa-117b-4939-8472-80e3bf5b2f1f,9/30/2022 6:00,10/16/2022 0:00,3.00155E+13,30,15,"Novo Oil & Gas Texas, LLC",Ovation Fed Com 1318 223H,32.299532,-104.048843,NAD27,9408,21339906,0,New Mexico,Eddy,3,TRUE,FALSE,,
9e7d4baf-9c2d-4fc0-b459-3b518bfe3e3f,10/4/2022 0:00,10/16/2022 0:00,3.71312E+13,37,131,BKV Operating LLC,P&G 3 5H,41.344433,-76.03189,NAD83,7526,14990251.08,0,Pennsylvania,Wyoming,3,FALSE,FALSE,,
b70cfb24-4df4-4163-a690-f51ed8aa9030,9/20/2022 0:00,10/16/2022 0:00,4.24614E+13,42,461,Pioneer Natural Resources,JRS Farms 13 25A 1H,31.6245928,-101.9389798,NAD27,9572,33936294,0,Texas,Upton,3,FALSE,FALSE,,
2358c944-f796-4aea-a1a5-8bed77e8f0b8,9/20/2022 0:00,10/16/2022 0:00,4.24614E+13,42,461,Pioneer Natural Resources,JRS Farms 13 25B 2H,31.6246478,-101.9389971,NAD27,9072,30225216,0,Texas,Upton,3,FALSE,FALSE,,
cd64dbc3-eed0-4d11-84c0-34df17687abf,9/20/2022 0:00,10/16/2022 0:00,4.24614E+13,42,461,Pioneer Natural Resources,JRS Farms 13 25C 3H,31.6247005,-101.9390145,NAD27,9357,33647250,0,Texas,Upton,3,FALSE,FALSE,,
2f1f201b-0223-4714-83dd-c7c18d4ac3f1,9/20/2022 0:00,10/16/2022 0:00,4.24614E+13,42,461,Pioneer Natural Resources,JRS Farms 13 25D 4H,31.6247514,-101.9390325,NAD27,9088,30154992,0,Texas,Upton,3,FALSE,FALSE,,
92a3d90c-0047-4294-a243-cd80acbc2f35,9/20/2022 0:00,10/16/2022 0:00,4.24614E+13,42,461,Pioneer Natural Resources,JRS Farms 13 25E 5H,31.6248021,-101.9390491,NAD27,9429,33022095,0,Texas,Upton,3,FALSE,FALSE,,
933769cd-6ad3-4bf2-9cf6-1e8dcd2227c1,9/20/2022 0:00,10/16/2022 0:00,4.24614E+13,42,461,Pioneer Natural Resources,JRS Farms 13 25F 6H,31.6248582,-101.939068,NAD27,9092,29712825,0,Texas,Upton,3,FALSE,FALSE,,
9284c8a6-33c3-4668-9bc1-3d90e116fc9e,9/28/2022 20:26,10/16/2022 2:10,4.21234E+13,42,123,ConocoPhillips Company/Burlington Resources,Hamilton B-Hooks 3 USW E1,29.2203583,-97.3796584,NAD83,13333,14035280,0,Texas,DeWitt,3,FALSE,FALSE,,
e77f67f8-ec0e-477a-b6d7-53ae1b3a9378,10/12/2022 5:00,10/16/2022 5:00,3.00255E+13,30,25,Matador Production Company,LESLIE FEDERAL COM #113H,32.1239584,-103.3876612,NAD83,10395,6250182,0,New Mexico,Lea,3,TRUE,FALSE,,
d0fe39f5-88a0-4af9-a9bd-1b664f05ffb1,10/3/2022 5:00,10/16/2022 5:00,3.00255E+13,30,25,Advance Energy Partners Hat Mesa LLC,Dagger State Com #302H,32.449854,-103.617538,NAD83,10074,22943146,963926,New Mexico,Lea,3,FALSE,FALSE,,
d788159c-24bf-41d3-b42f-22e7b3051cae,10/3/2022 5:00,10/16/2022 5:00,3.00255E+13,30,25,Advance Energy Partners Hat Mesa LLC,Dagger State Com #516H,32.449854,-103.617247,NAD83,10349,22983886,961952,New Mexico,Lea,3,FALSE,FALSE,,
5ac49856-1d7f-4104-951b-ad6748c61966,10/9/2022 5:00,10/16/2022 5:00,3.50173E+13,35,17,Cimarex Energy Co.,LEOTA 5H-1918X,35.580783,-98.0897171,NAD83,11619,24749045,0,Oklahoma,Canadian,3,FALSE,FALSE,,
59f6f302-1692-48dc-8171-577bedb2819f,10/3/2022 6:00,10/16/2022 6:00,5.12348E+12,5,123,"Bayswater Exploration & Production, LLC",Pickaroon 3,40.58457,-104.58389,NAD83,7119,20002623,0,Colorado,Weld,3,FALSE,FALSE,,
b13f2e84-b5e2-487e-9abd-8d587e35c5aa,10/3/2022 6:00,10/16/2022 6:00,5.12348E+12,5,123,"Bayswater Exploration & Production, LLC",Pickaroon 1,40.58471,-104.58389,NAD83,7156,20176655,0,Colorado,Weld,3,FALSE,FALSE,,
dce8425d-68c3-461d-bc6f-041b025e7d7e,10/3/2022 6:00,10/16/2022 6:00,5.12348E+12,5,123,"Bayswater Exploration & Production, LLC",Pickaroon 2,40.58464,-104.58389,NAD83,7185,20136389,0,Colorado,Weld,3,FALSE,FALSE,,
d1891c04-22d4-4fce-98bd-d62d536465cd,10/3/2022 6:00,10/16/2022 6:00,3.00155E+13,30,15,MEWBOURNE OIL COMPANY,Local Legend 18-17 B2EH Fed Com 1H,32.75013416,-103.9157917,NAD27,8480,19622358,0,New Mexico,Eddy,3,FALSE,FALSE,,
080a2ca0-083b-464f-9629-67667a92297c,10/4/2022 6:00,10/16/2022 6:00,3.00155E+13,30,15,MEWBOURNE OIL COMPANY,Local Legend 18-17 B2DA Fed Com 1H,32.7502167,-103.9157917,NAD27,8450,19778262,0,New Mexico,Eddy,3,FALSE,FALSE,,
5fc81666-96d3-4266-bbe6-fcf75098b7c3,9/27/2022 20:38,10/16/2022 6:58,3.50872E+13,35,87,"Charter Oak Production Co., LLC",Tut 1-9-16-21XH,34.927381,-97.311032,NAD83,6439,27609306,1983894,Oklahoma,McClain,3,FALSE,FALSE,,
cb99ab2a-40e2-44f5-bc66-54dd9ed5a500,10/12/2022 13:44,10/16/2022 20:43,3.30531E+13,33,53,"PetroShale (US), Inc.",LA VERENDRYE FEDERAL 5TFH,47.701497,-102.896541,NAD83,11098.15,4876763,0,North Dakota,McKenzie,3,TRUE,FALSE,,
e675e254-9aef-426b-a4ce-1a95ff00cf3c,10/12/2022 15:28,10/16/2022 22:17,3.30531E+13,33,53,"PetroShale (US), Inc.",SACAGAWEA FEDERAL 4MBH,47.701414,-102.896541,NAD83,11025.25,4401374,0,North Dakota,McKenzie,3,TRUE,FALSE,,
06d75c46-cc96-4b51-9a50-6768fb78a6c8,9/23/2022 0:00,10/17/2022 0:00,3.40132E+13,34,13,"Ascent Resources - Utica, LLC",R HOOVER S WHL BL 6H,40.141281,-80.88842,NAD83,9588,16201164,0,Ohio,Belmont,3,FALSE,FALSE,,
99a221f8-3718-4c40-8fd8-ec1e0ebfa6aa,10/17/2022 0:00,10/17/2022 0:00,3.51392E+13,35,139,Scout Energy Partners,Johnson Est 13-3,36.593059,-101.292213,NAD27,3253,71106,0,Oklahoma,Texas,3,FALSE,FALSE,,
66a01934-2ab7-4982-a225-0132bf9291ce,10/17/2022 0:00,10/17/2022 0:00,4.23413E+13,42,341,Scout Energy Partners,Longanecker 6,35.9938479,-101.7403411,NAD27,3240,45696,0,Texas,Moore,3,FALSE,FALSE,,
d62ea642-bf36-4c2c-8604-0ee1b53b2521,9/9/2022 5:00,10/17/2022 5:00,1.70812E+13,17,81,Aethon Energy Operating LLC,HA RA SUL;HARRIS 10-3 HC 001-ALT,32.20775081,-93.48401037,NAD83,12068,40505170,0,Louisiana,Red River,3,FALSE,FALSE,,
8e91b0b3-2578-4368-a801-7a21eb89a0e7,9/10/2022 5:00,10/17/2022 5:00,1.70812E+13,17,81,Aethon Energy Operating LLC,HA RA SUL;HARRIS 10-3 HC 002-ALT,32.20775126,-93.48395217,NAD83,12058,39445451,0,Louisiana,Red River,3,FALSE,FALSE,,
69a94bd7-7662-4ffe-8ef9-cad1f24eee01,9/10/2022 5:00,10/17/2022 5:00,1.70812E+13,17,81,Aethon Energy Operating LLC,HA RA SUL;HARRIS 10-3 HC 003-ALT,32.2077446,-93.483889,NAD83,11997,41797787,0,Louisiana,Red River,3,FALSE,FALSE,,
6504cd89-faad-4e2c-a32b-671c643f5aac,10/5/2022 5:00,10/17/2022 5:00,3.00155E+13,30,15,Occidental Oil and Gas,HEADS CC 9 4 FEDERAL COM 312H,32.22212093,-103.9859738,NAD27,10023,18803022,0,New Mexico,Eddy,3,TRUE,FALSE,,
284229b1-9a35-4c78-84cc-e446f094dad3,10/5/2022 5:00,10/17/2022 5:00,3.00155E+13,30,15,Occidental Oil and Gas,HEADS CC 9 4 FEDERAL COM 38H,32.22211292,-103.98586,NAD27,10141,19215588,0,New Mexico,Eddy,3,TRUE,FALSE,,
af187d08-35a2-4cac-88ec-9d5ef59fceca,10/5/2022 5:00,10/17/2022 5:00,3.00155E+13,30,15,Occidental Oil and Gas,HEADS CC 9 4 FEDERAL COM 36H,32.222102,-103.985718,NAD27,10057,15920520,0,New Mexico,Eddy,3,TRUE,FALSE,,
18c020b4-adfe-4317-b78c-d772be3ecb5d,10/17/2022 5:00,10/17/2022 5:00,3.51232E+13,35,123,Stephens & Johnson Operating Co.,Perry 51,34.895122,-96.486099,WGS84,3750,243426,0,Oklahoma,Pontotoc,3,FALSE,FALSE,,
061ea4a5-1a28-451d-81ea-68864cc51955,10/16/2022 6:00,10/17/2022 6:00,5.0671E+12,5,67,SIMCOE LLC,Fassett 24-01 3,37.1832,-107.7783,WGS84,3012,143982,0,Colorado,La Plata,3,FALSE,FALSE,,
48188f74-561b-4575-8026-9f9cc4869687,10/15/2022 6:00,10/17/2022 6:00,5.07108E+12,5,71,Evergreen Natural Resources LLC,Pumpernickel 12-29,37.13765,-104.808357,WGS84,1580,48930,12512,Colorado,Las Animas,3,FALSE,FALSE,,
be01f9cb-dee0-414a-8395-9c64b5d2b9e7,10/8/2022 6:00,10/17/2022 6:00,5.12351E+12,5,123,PDC Energy,Bost Farm 9N-8C-L,40.41465,-104.82794,NAD83,7269,7066380,0,Colorado,Weld,3,FALSE,FALSE,,
4d22908d-b731-460a-b1d8-d06d7377d877,10/8/2022 6:00,10/17/2022 6:00,5.12351E+12,5,123,PDC Energy,Bost Farm 40N-8B-L2,40.41465,-104.82779,NAD83,7210,6893107,0,Colorado,Weld,3,FALSE,FALSE,,
8e06782f-a79b-4c60-8c18-da913fcbdf2b,10/8/2022 6:00,10/17/2022 6:00,5.12351E+12,5,123,PDC Energy,Bost Farm 39N-8C-L,40.41466,-104.82815,NAD83,7266,7040845,0,Colorado,Weld,3,FALSE,FALSE,,
f49599ee-6f7f-4cdc-acbe-f7d29bbe0256,10/8/2022 6:00,10/17/2022 6:00,5.12351E+12,5,123,PDC Energy,Bost Farm 9C-8-L,40.41466,-104.82808,NAD83,7383,6994188,0,Colorado,Weld,3,FALSE,FALSE,,
4aa5de8b-670a-4042-9c54-bd40be0f3cc5,10/8/2022 6:00,10/17/2022 6:00,5.12351E+12,5,123,PDC Energy,Bost Farm 40C-8-L2,40.41465,-104.82787,NAD83,7371,6428428,0,Colorado,Weld,3,FALSE,FALSE,,
3e5c9922-f9e6-4c55-b2a1-bfdc17b3645d,10/8/2022 6:00,10/17/2022 6:00,5.12351E+12,5,123,PDC Energy,Bost Farm 9N-8B-L,40.41465,-104.82801,NAD83,7195,6992231,0,Colorado,Weld,3,FALSE,FALSE,,
95e1ba20-c816-498b-8c43-b53875efdc3c,9/27/2022 6:00,10/17/2022 6:00,3.3061E+13,33,61,"Slawson Exploration Company, Inc.",Vixen Federal 3-19-30H,47.975224,-102.373394,NAD83,10054,11527315.8,0,North Dakota,Mountrail,3,TRUE,FALSE,,
fa86193b-4076-44a0-b9e4-4167fa7bc9ec,10/3/2022 6:00,10/17/2022 6:00,3.3061E+13,33,61,Whiting Petroleum,LITTLEFIELD  11 21HU,48.065,-102.3949,NAD27,10376.9,13247467.8,0,North Dakota,Mountrail,3,FALSE,FALSE,,
acc0e459-a5c5-4957-9358-c8cb4ff15de5,10/3/2022 6:00,10/17/2022 6:00,3.3061E+13,33,61,Whiting Petroleum,LITTLEFIELD  11 21TFHU,48.0651,-102.3949,NAD83,10487.35,14083188,0,North Dakota,Mountrail,3,FALSE,FALSE,,
2a9d5f92-23ad-4250-acde-9326abeb95b7,10/17/2022 8:00,10/17/2022 8:00,5.01032E+13,50,103,ConocoPhillips Company/Burlington Resources,MT7-02,70.173293,-151.690457,NAD27,8485,491516,0,Alaska,Harrison Bay,3,FALSE,FALSE,,
2ac58de6-cfd7-4e3b-a97c-751649991374,10/17/2022 9:56,10/17/2022 17:51,4.21034E+13,42,103,Slant Operating ,JB Tubb C 40,31.487686,-102.620409,NAD83,4659,372737,24457,Texas,Crane,3,FALSE,FALSE,,
5c0676dc-f931-4b5d-8170-0f4e78d4405e,10/16/2022 0:00,10/18/2022 0:00,2.50832E+13,25,83,"White Rock Oil & Gas, LLC",ALBIN FARMS 34X-32,47.792645,-104.430123,NAD83,10521,2925865,0,Montana,Richland,3,FALSE,FALSE,,
65075ab7-ecc2-4bcd-b228-cc7ae7c019d0,9/23/2022 0:00,10/18/2022 0:00,3.40132E+13,34,13,"Ascent Resources - Utica, LLC",R HOOVER SE WHL BL 8H,40.141254,-80.888357,NAD83,9633,20129844,0,Ohio,Belmont,3,FALSE,FALSE,,
272f8ee6-bafb-4651-b9ae-06820ac6e5ef,10/4/2022 0:00,10/18/2022 0:00,3.50632E+13,35,63,"Foundation Energy Management, LLC",Margie 0508 3HX,35.000292,-96.378802,NAD27,4924,15165612,0,Oklahoma,Hughes,3,FALSE,FALSE,,
713e7c09-1e31-429f-9ef1-777428c7c0a5,10/4/2022 0:00,10/18/2022 0:00,3.50632E+13,35,63,"Foundation Energy Management, LLC",Margie 0508 4HX,35.000237,-96.37874,NAD27,4826,211594808,0,Oklahoma,Hughes,3,FALSE,FALSE,,
c2057a44-2d1f-4776-a0d0-ff1a921f5dbd,10/10/2022 0:00,10/18/2022 0:00,4.20035E+13,42,3,"Elevation Resources, LLC",UL G 9-33 A 1H,32.163259,-102.592307,NAD27,10011,14974680,0,Texas,Andrews,3,FALSE,FALSE,,
3cbd3f99-f39b-4961-b45a-7193911fddd4,10/18/2022 0:00,10/18/2022 0:00,4.22333E+13,42,233,Scout Energy Partners,South Herring 207,35.793678,-101.542501,NAD27,2880,47586,0,Texas,Hutchinson,3,FALSE,FALSE,,
d03fe782-aa28-4bab-a8df-8ba5e4fadca5,10/1/2022 0:00,10/18/2022 0:00,4.23014E+13,42,301,"EOG Resources, Inc.",MCGREGOR C UNIT #752H,31.884166,-103.5409056,NAD83,12529.28,19938492,0,Texas,Loving,3,FALSE,FALSE,,
dbd583c7-17d7-49e9-9aac-6e8e6382ae2f,10/2/2022 0:00,10/18/2022 0:00,4.23014E+13,42,301,"EOG Resources, Inc.",MCGREGOR B UNIT #753H,31.884166,-103.540841,NAD83,12541.88,19673682,0,Texas,Loving,3,FALSE,FALSE,,
9d234d32-e758-4727-a919-8e1feb16a790,10/11/2022 0:00,10/18/2022 0:00,4.24794E+13,42,479,Lewis Energy Group,JEV-KING STATE GU NO. 1H,27.95988322,-99.44443048,WGS84,11074,17234149,0,Texas,Webb,3,FALSE,FALSE,,
c7635e7f-e77b-4321-a454-75598b04991d,10/1/2022 0:00,10/18/2022 0:00,4.24794E+13,42,479,"Chesapeake Operating, Inc.",PGE Browne H 10H,28.125417,-99.827501,NAD27,7566,17228736,0,Texas,Webb,3,FALSE,FALSE,,
6e0245fd-ce53-4481-b38c-964890988ad8,10/1/2022 0:00,10/18/2022 0:00,4.24794E+13,42,479,"Chesapeake Operating, Inc.",PGE Browne H 11H,28.125348,-99.827502,NAD27,7594,16297470,0,Texas,Webb,3,FALSE,FALSE,,
6636ef5b-bd19-4a3c-b529-e40de29a6872,10/1/2022 0:00,10/18/2022 0:00,4.24794E+13,42,479,"Chesapeake Operating, Inc.",PGE Browne H 12H,28.125279,-99.827502,NAD27,7624,17316348,0,Texas,Webb,3,FALSE,FALSE,,
b7e231b0-7cc8-4875-8767-9190c01c4652,9/24/2022 5:00,10/18/2022 5:00,1.70174E+13,17,17,"Chesapeake Operating, Inc.",HA RA SUH;MLT 5&32&29-15-15 HC 002-ALT,32.3113556,-93.9304015,NAD83,11428.6,30190818,0,Louisiana,Caddo,3,FALSE,FALSE,,
c0c54f8e-f408-47eb-81a5-b7ce6b719cac,9/9/2022 5:00,10/18/2022 5:00,3.50173E+13,35,17,Cimarex Energy Co.,LEOTA 4H-1918X,35.580783,-98.089717,NAD83,11642,26434266,0,Oklahoma,Canadian,3,FALSE,FALSE,,
34e9fd18-d07e-431f-b345-7ccbb4ae3738,10/12/2022 5:00,10/18/2022 5:00,3.50173E+13,35,17,Citizen Energy II,RIVIERA 1405 4-31MH,35.6499,-97.7755,NAD27,7858,13698537,0,Oklahoma,Canadian,3,FALSE,FALSE,,
9c0d5810-a712-4070-b428-c333f0d5797a,10/12/2022 5:00,10/18/2022 5:00,3.50173E+13,35,17,Citizen Energy II,RIVIERA 1405 6-31MH,35.6499,-97.7765,NAD27,7817,11593452,0,Oklahoma,Canadian,3,FALSE,FALSE,,
17b48c20-2244-46a2-8020-e43fdc072f45,10/9/2022 5:00,10/18/2022 5:00,3.50733E+13,35,73,Ovintiv Mid-Continent Inc. ,Coffey 1507 2H-27X,35.753822,-97.933225,NAD27,8447.42,24666222,27793,Oklahoma,Kingfisher,3,FALSE,FALSE,,
e8757eac-ddc1-4be8-a590-5a8aa7a5ac70,10/9/2022 5:00,10/18/2022 5:00,3.50733E+13,35,73,Ovintiv Mid-Continent Inc. ,Coffey 1507 3H-27X,35.753822,-97.933158,NAD27,8431.64,25687704,29478,Oklahoma,Kingfisher,3,FALSE,FALSE,,
0616b263-7994-4838-a2cf-09899d4c08ab,10/17/2022 5:00,10/18/2022 5:00,3.50733E+13,35,73,Mach Resources,Baxter Trust 27-18-5 1MH,36.015724,-97.724491,NAD83,6895,8367366,0,Oklahoma,Kingfisher,3,FALSE,FALSE,,
603b644c-5e71-44e0-81c7-87eefb9ae9cd,10/10/2022 5:00,10/18/2022 5:00,4.20035E+13,42,3,"Elevation Resources, LLC",UL G 9-33 B 2H,32.16325934,-102.5923067,NAD27,10060,15186486,0,Texas,Andrews,3,FALSE,FALSE,,
b0194fbf-8ad2-46ea-b38f-e719238b46cd,10/10/2022 5:00,10/18/2022 5:00,4.22274E+13,42,227,"Surge Operating, LLC",Wham Unit A 22-23 2AH,32.483203,-101.3430187,NAD83,6742,15948248,0,Texas,Howard,3,FALSE,FALSE,,
39bd4c1c-5bb0-474c-bbd3-ee29de9275fd,10/18/2022 5:00,10/18/2022 5:00,4.22933E+13,42,293,"Crescent Pass Energy, LLC","Smythe, E. L. #8",31.409687,-96.453852,NAD83,10100,362497,2078,Texas,Limestone,3,FALSE,FALSE,,
4c678317-5086-494b-bf91-f6365e74222e,9/30/2022 5:00,10/18/2022 5:00,4.23894E+13,42,389,UpCurve Energy LLC,Sugar Raider 3H,31.233594,-103.554423,NAD83,10241,33859,0,Texas,Reeves,3,FALSE,FALSE,,
db3a67b9-9d59-423e-91b4-3132600c67c6,10/6/2022 5:00,10/18/2022 5:00,4.24754E+13,42,475,WPX Energy,UL LOVELAND 1920-17 333H,31.550326,-103.168917,NAD83,10830,16732968,0,Texas,Ward,3,FALSE,FALSE,,
77aa42d4-0123-44d9-8840-5ba4616d3a2a,10/6/2022 5:00,10/18/2022 5:00,4.24754E+13,42,475,WPX Energy,UL LOVELAND 1920-17 413H,31.550871,-103.16685,NAD83,10428,16740486,0,Texas,Ward,3,FALSE,FALSE,,
6a7fc77f-d3d9-4c7d-bfd0-1ce3b96f1997,10/12/2022 5:00,10/18/2022 5:00,4.24974E+13,42,497,BKV Corporation,WCCO 4 M L Patterson (AW) 11H,33.101086,-97.507256,NAD27,5533,16732127,0,Texas,Wise,3,FALSE,FALSE,,
d0361400-4d8c-497b-a669-9a80fc17e95e,10/5/2022 6:00,10/18/2022 6:00,5.04524E+12,5,45,TEP Rocky Mountain LLC,Federal NR 432-4,39.55425,-107.879154,NAD83,9903.1,5439273.84,0,Colorado,Garfield,3,TRUE,FALSE,,
3b5e0453-7c3e-4333-9047-934f62bb817e,10/5/2022 6:00,10/18/2022 6:00,5.04524E+12,5,45,TEP Rocky Mountain LLC,Federal NR 532-4,39.554234,-107.879138,NAD83,9874.5,5328089.76,0,Colorado,Garfield,3,TRUE,FALSE,,
5069a0b1-339e-4801-b63e-b173624a14b7,10/6/2022 6:00,10/18/2022 6:00,5.04524E+12,5,45,TEP Rocky Mountain LLC,Federal NR 32-4,39.554284,-107.879144,NAD83,9950.8,5394762.24,0,Colorado,Garfield,3,TRUE,FALSE,,
01e9ba53-4144-4947-8922-3136c054e940,10/6/2022 6:00,10/18/2022 6:00,5.04524E+12,5,45,TEP Rocky Mountain LLC,Federal NR 344-36,39.554268,-107.879127,NAD83,10051.4,7811617.38,0,Colorado,Garfield,3,TRUE,FALSE,,
a5b30c4b-4054-4a63-acbd-efacfd93277c,10/11/2022 6:00,10/18/2022 6:00,5.12346E+12,5,123,"Bison Oil & Gas II, LLC",HUNT 08-60 06B-02,40.687475,-104.141664,NAD83,6486,24014415,0,Colorado,Weld,3,FALSE,FALSE,,
8b4d4d2a-e35d-4b9c-a713-37fc923c3719,10/15/2022 6:00,10/18/2022 6:00,3.00432E+13,30,43,"DJR OPERATING, LLC",VENADO CANYON UNIT 301H,36.138697,-107.432074,NAD83,5429.1,1460214,0,New Mexico,Sandoval,3,TRUE,FALSE,,
a4777f05-a8b7-47ea-a522-784cb073d1b1,9/27/2022 6:00,10/18/2022 6:00,3.3061E+13,33,61,"Slawson Exploration Company, Inc.",Vixen Federal 6-19-30TFH,47.975202,-102.373296,NAD83,10054,11286980.88,0,North Dakota,Mountrail,3,TRUE,FALSE,,
7f482a08-2248-4508-9bb1-d9240bf9aa3a,10/15/2022 6:08,10/18/2022 11:08,3.00432E+13,30,43,"DJR OPERATING, LLC",VENADO CANYON UNIT 303H,36.138534,-107.432101,NAD83,5398.8,1382724,0,New Mexico,Sandoval,3,TRUE,FALSE,,
b8ab6869-b619-4e11-96dc-f3b2917fc76e,10/16/2022 21:34,10/18/2022 13:32,4.90095E+13,49,9,Devon Energy Production Company L. P.,Rankin Fed 22-273668-2TXPH,43.088075,-105.015834,NAD83,6364,3044707,0,Wyoming,Converse,3,FALSE,FALSE,,
15c5d49f-98f3-4f9d-960f-71f9c8592552,10/12/2022 2:22,10/18/2022 14:02,4.24794E+13,42,479,SilverBow Resources,Fasken State 207H,27.8760871,-99.7754324,NAD83,9485.9,13152687,0,Texas,Webb,3,FALSE,FALSE,,
4b59e78d-6213-4dc2-aa49-8ac68ddc8e67,10/10/2022 11:28,10/18/2022 15:42,4.22274E+13,42,227,"Surge Operating, LLC",Wham Unit A 22-23 2SH,32.4831973,-101.3429373,NAD83,6488,15961827,0,Texas,Howard,3,FALSE,FALSE,,
e3b023c6-e669-4d29-b339-0b6613bba24e,10/12/2022 0:39,10/18/2022 15:49,4.24794E+13,42,479,SilverBow Resources,Fasken State 206H,27.8760046,-99.7753959,NAD83,9482.2,11410129,0,Texas,Webb,3,FALSE,FALSE,,
7cc548d1-b825-42e3-b426-8215d3e05138,10/15/2022 0:00,10/19/2022 0:00,2.50832E+13,25,83,"White Rock Oil & Gas, LLC",PUTNAM 24X-20,47.734174,-104.436122,NAD83,10575,3292734,0,Montana,Richland,3,FALSE,FALSE,,
fb02da36-83c7-42db-8557-115d0283abdd,9/23/2022 0:00,10/19/2022 0:00,3.40132E+13,34,13,"Ascent Resources - Utica, LLC",R HOOVER SW WHL BL 2H,40.141334,-80.888545,NAD83,9552,17363598,0,Ohio,Belmont,3,FALSE,FALSE,,
16a2dab2-654a-41fa-8872-a89c15d52710,9/23/2022 0:00,10/19/2022 0:00,3.40132E+13,34,13,"Ascent Resources - Utica, LLC",R HOOVER W WHL BL 4H,40.141307,-80.888482,NAD83,9568,17007774,0,Ohio,Belmont,3,FALSE,FALSE,,
7494dae3-eaeb-4f38-aa85-04036fd9a263,10/19/2022 0:00,10/19/2022 0:00,3.51392E+13,35,139,Scout Energy Partners,Lewis 17-3,36.593046,-101.28149,NAD27,3215,68208,0,Oklahoma,Texas,3,FALSE,FALSE,,
16c236a5-8e89-4594-b9b1-22607d49418c,10/12/2022 0:00,10/19/2022 0:00,4.20413E+13,42,41,Apache Corporation,Molitor A 2H,30.633885,-96.199548,NAD27,10689,16105320,0,Texas,Brazos,3,FALSE,FALSE,,
e45a57b1-a4f0-4b05-9e9e-aa747ec6e855,10/19/2022 0:00,10/19/2022 0:00,4.23413E+13,42,341,Scout Energy Partners,Ethelyn 272D,35.86626389,-101.8954611,NAD27,3350,77322,0,Texas,Moore,3,FALSE,FALSE,,
f946234e-33af-45b6-b04a-fb93db6ccdaa,10/17/2022 4:00,10/19/2022 4:00,4.50271E+13,45,27,"EnerVest, Ltd.",VCI-538680,37.060617,-82.086093,WGS84,3050,50064,,Virginia,Buchanan,3,FALSE,FALSE,,
95689602-3592-4abd-b2f1-ab3eba5a2f91,10/4/2022 5:00,10/19/2022 5:00,5.05707E+12,5,57,D90 Energy LLC,SU SPICER 0680 2-5H17,40.5295,-106.4039,NAD27,7205,10858067,33728,Colorado,Jackson,3,TRUE,FALSE,,
f335504f-28e9-40c0-b06f-67224ed68370,9/23/2022 5:00,10/19/2022 5:00,1.70174E+13,17,17,"Chesapeake Operating, Inc.",HA RA SUH;MLT 5&32&29-15-15 HC 001-ALT,32.3113547,-93.9304824,NAD83,11513.1,33411664,0,Louisiana,Caddo,3,FALSE,FALSE,,
fc90c2f2-0c99-484a-a2f5-c92afb838980,9/24/2022 5:00,10/19/2022 5:00,1.70174E+13,17,17,"Chesapeake Operating, Inc.",HA RA SUH;MLT 5&32&29-15-15 HC 003-ALT,32.3113565,-93.9303206,NAD83,11527.6,29476738,0,Louisiana,Caddo,3,FALSE,FALSE,,
115080ba-4ba4-4a0c-8fb1-cd50b26b0981,10/12/2022 5:00,10/19/2022 5:00,3.00255E+13,30,25,Matador Production Company,LESLIE FEDERAL COM #123H,32.1239584,-103.3875642,NAD83,10949,19316496,0,New Mexico,Lea,3,TRUE,FALSE,,
453a1597-c349-41f1-a0cb-36b82c843e17,10/2/2022 5:00,10/19/2022 5:00,4.20333E+13,42,33,"HighPeak Energy Holdings, LLC.",RTR-Wolf 40-52 A Unit A1H,32.526225,-101.271542,NAD27,6211,21413448,0,Texas,Borden,3,FALSE,FALSE,,
8a675f6b-b2a0-433d-9657-057c221faf39,10/2/2022 5:00,10/19/2022 5:00,4.20333E+13,42,33,"HighPeak Energy Holdings, LLC.",RTR-Wolf 40-52 A Unit A2H,32.526223,-101.271461,NAD27,6195,21032718,0,Texas,Borden,3,FALSE,FALSE,,
ebd1af61-5bb0-44de-9c7c-66fae2901c27,10/2/2022 5:00,10/19/2022 5:00,4.20333E+13,42,33,"HighPeak Energy Holdings, LLC.",RTR-Wolf 40-52 A Unit A3H,32.526222,-101.271379,NAD27,6216,21003276,0,Texas,Borden,3,FALSE,FALSE,,
31aa0ad1-15c0-463b-b7df-6837c857ae4c,10/3/2022 5:00,10/19/2022 5:00,4.22274E+13,42,227,"Laredo Petroleum, Inc.",Tish 46-03 1SS,32.4916,-101.503031,NAD83,7267,22046194,0,Texas,Howard,3,FALSE,FALSE,,
fa7d7b39-a35f-4558-bc42-3bdcd4c0b92e,10/3/2022 5:00,10/19/2022 5:00,4.22274E+13,42,227,"Laredo Petroleum, Inc.",Tish 46-03 3SA,32.4915,-101.503009,NAD83,7583,22674234,0,Texas,Howard,3,FALSE,FALSE,,
dc55ec0e-2c69-4a13-9361-a79d64eabc2d,10/3/2022 5:00,10/19/2022 5:00,4.22274E+13,42,227,"Laredo Petroleum, Inc.",Tish 46-03  3SS,32.4914,-101.502986,NAD83,7225,22091733,0,Texas,Howard,3,FALSE,FALSE,,
8b6c2703-476c-473c-95a5-1f3927b79812,9/25/2022 5:00,10/19/2022 5:00,4.23174E+13,42,317,Diamondback E&P LLC,CHAMONIX 247 C 3WB,32.2324,-102.3135,NAD27,9769,26899307,0,Texas,Martin,3,TRUE,FALSE,,
bab3ed9e-eb93-4db6-b4a5-00cc41a62dfe,9/22/2022 5:00,10/19/2022 5:00,4.23174E+13,42,317,Diamondback E&P LLC,CHAMONIX 247 C 4LS,32.39007374,-102.0536885,NAD27,9116,24443935,0,Texas,Martin,3,TRUE,FALSE,,
f645576e-33d3-4ea4-9e83-d75726887f6f,9/24/2022 5:00,10/19/2022 5:00,4.23174E+13,42,317,Diamondback E&P LLC,CHAMONIX 247 H 3MS 3MS,32.39,-102.0536,NAD27,8400,24528822,0,Texas,Martin,3,FALSE,FALSE,,
9720e682-1577-4811-943c-72d36f826100,9/22/2022 5:00,10/19/2022 5:00,4.23174E+13,42,317,Diamondback E&P LLC,CHAMONIX 247 H 4WB,32.3901,-102.0534,NAD27,9793,26814790,0,Texas,Martin,3,TRUE,FALSE,,
979175de-2584-4a9a-97c1-ce4903b33d72,9/22/2022 5:00,10/19/2022 5:00,4.23174E+13,42,317,Diamondback E&P LLC,CHAMONIX 247 H 5LSMARTIN 5LS,32.3901,-102.0535,NAD27,9023,24489066,0,Texas,Martin,3,TRUE,FALSE,,
31d47c68-2076-4340-b656-efbead27f334,10/19/2022 5:00,10/19/2022 5:00,4.24855E+13,42,485,W.T. Waggoner Estate,Buoy 11,33.997708,-98.931221,NAD27,2348,10905,0,Texas,Wichita,3,FALSE,FALSE,,
c812eb9b-9691-4636-a156-7212328157eb,10/12/2022 5:00,10/19/2022 5:00,4.24974E+13,42,497,BKV Corporation,ML Patterson 12H,33.102326,-97.504624,NAD27,7320,17653018,0,Texas,Wise,3,FALSE,FALSE,,
69707091-a048-4634-8ad4-e653b34bbfc6,10/8/2022 5:00,10/19/2022 5:00,4.25073E+13,42,507,"EXCO Resources, Inc.",TIDWELL UNIT ZAV C 1H,28.790222,-99.608286,NAD83,6321,16776599,0,Texas,Zavala,3,FALSE,FALSE,,
bedca53b-22e0-4905-8651-871a96469003,10/6/2022 6:00,10/19/2022 6:00,5.04524E+12,5,45,TEP Rocky Mountain LLC,Federal NR 444-36,39.554252,-107.87911,NAD83,10063.7,8055324.9,0,Colorado,Garfield,3,TRUE,FALSE,,
06615932-8d1f-4905-8f21-f35cc029cec0,10/18/2022 6:00,10/19/2022 6:00,5.06707E+12,5,67,SIMCOE LLC,Jefferies A 1,37.1662,-107.7794,WGS84,3012,164838,0,Colorado,La Plata,3,FALSE,FALSE,,
25473765-e490-47ca-8be2-c47974705bb0,10/11/2022 6:00,10/19/2022 6:00,5.12346E+12,5,123,"Bison Oil & Gas II, LLC",HUNT 08-60 06B-01,40.68755,-104.141661,NAD83,6427,24006382,0,Colorado,Weld,3,FALSE,FALSE,,
09cfe3e7-6c33-4f51-8bc7-ee94df39c81e,9/10/2022 6:00,10/19/2022 6:00,4.90373E+13,49,37,Wexpro Company,Canyon Creek 242,41.051921,-108.750252,NAD83,7076.14,606396,0,Wyoming,Sweetwater,3,TRUE,FALSE,,
42a8dbb4-69a8-4cde-9aef-4b1f3ec154f1,9/28/2022 10:01,10/19/2022 8:30,4.21234E+13,42,123,ConocoPhillips Company/Burlington Resources,Hamilton B-Hooks 3 USW C1,29.2204361,-97.3797473,NAD83,13347.7,14080657,0,Texas,DeWitt,3,FALSE,FALSE,,
1a68ac83-7d7e-44e6-9dae-527bcf0add1a,10/19/2022 8:27,10/19/2022 9:26,4.20033E+13,42,3,XTO Energy/ExxonMobil,MSAU 8056,32.392752,-102.541626,NAD83,4530,72122,9568,Texas,Andrews,3,FALSE,FALSE,,
e8656e02-a1df-4b8d-99cf-9965a9a2e3b7,10/17/2022 6:00,10/19/2022 14:00,3.50832E+13,35,83,"Kirkpatrick Oil Company, Inc",Carolyn Kay 1-4CH,36.14576,-97.5289,NAD27,5000,2680104,0,Oklahoma,Logan,3,FALSE,FALSE,,
5999cd3b-df02-4ba3-8351-10e6291b1bbd,9/29/2022 23:19,10/19/2022 14:35,4.22354E+13,42,235,Discovery Natural Resources LLC,Rock Hollow #1901UB,31.203514,-101.248933,NAD83,6990,22474574,766042,Texas,Irion,3,FALSE,FALSE,,
951d847d-8ee1-497e-948d-0bc70a95c669,9/29/2022 5:21,10/19/2022 19:20,4.21234E+13,42,123,ConocoPhillips Company/Burlington Resources,Hamilton B-Hooks 3 USW D1,29.2203984,-97.3797028,NAD83,13267.1,12572669,0,Texas,DeWitt,3,FALSE,FALSE,,
84ed018f-6166-4925-9197-752247e3c190,10/9/2022 16:57,10/19/2022 19:46,4.23294E+13,42,329,"CrownQuest Operating, LLC",Common Nail #1JM,32.106806,-102.009287,NAD83,8472,20525224,0,Texas,Midland,3,FALSE,FALSE,,
fda14c2a-e523-4bdf-95d2-59784cff3ebb,10/13/2022 13:53,10/19/2022 23:17,4.90213E+13,49,21,"Wave Petroleum Operating, LLC",KRAKOW 18-63-05-32-ECH,41.54893,-104.45609,NAD83,7817,7700866,0,Wyoming,Laramie,3,FALSE,FALSE,,
98e1f815-2f69-4f32-ae9e-37aedecb5f2b,10/19/2022 0:00,10/20/2022 0:00,5.07108E+12,5,71,Evergreen Natural Resources LLC,Geraldine 33-25,37.13909,-104.83802,WGS84,1605,59682,16024,Colorado,Las Animas,3,FALSE,FALSE,,
fffcfe43-c350-4287-a740-b5d49bb1a582,10/7/2022 0:00,10/20/2022 0:00,3.00255E+13,30,25,"EOG Resources, Inc.",CONVOY 28 STATE COM #103H,32.194435,-103.575549,NAD83,9520.37,19046664,0,New Mexico,Lea,3,FALSE,FALSE,,
98b9fe1e-1438-4cc1-bc62-22a97b5b5d26,10/7/2022 0:00,10/20/2022 0:00,3.00255E+13,30,25,"EOG Resources, Inc.",CONVOY 28 STATE COM #203H,32.1944722,-103.5730604,NAD83,9761.2,18765810,0,New Mexico,Lea,3,FALSE,FALSE,,
1b6c3d5d-0119-4c3f-a1de-51b546c9dfb9,10/7/2022 0:00,10/20/2022 0:00,3.00255E+13,30,25,"EOG Resources, Inc.",CONVOY 28 STATE COM #204H,32.1944348,-103.5754196,NAD83,9660.19,19362882,0,New Mexico,Lea,3,FALSE,FALSE,,
248d3a83-8339-404e-9faa-c4c123fd0aa8,10/7/2022 0:00,10/20/2022 0:00,3.00255E+13,30,25,"EOG Resources, Inc.",CONVOY 28 STATE COM #301H,32.1944376,-103.57304,NAD83,10364.25,16416918,0,New Mexico,Lea,3,FALSE,FALSE,,
6abcb9aa-d142-45ef-992f-7576a89430ec,10/7/2022 0:00,10/20/2022 0:00,3.00255E+13,30,25,"EOG Resources, Inc.",CONVOY 28 STATE COM #302H,32.1944346,-103.575355,NAD83,10403.38,18009894,0,New Mexico,Lea,3,FALSE,FALSE,,
364b36be-5646-458f-95a0-425f648a0432,9/23/2022 0:00,10/20/2022 0:00,3.71293E+13,37,129,Olympus Energy,Metis 7M,40.38202,-79.63787,NAD27,7921,14547047,0,Pennsylvania,Westmoreland,3,FALSE,FALSE,,
93e914d6-a413-4d55-b730-dcdebc5f7f25,10/20/2022 0:00,10/20/2022 0:00,4.2195E+13,42,195,Scout Energy Partners,Alta B-1,36.4812843,-101.4866762,NAD27,2944,21504,0,Texas,Hansford,3,FALSE,FALSE,,
a6af79a6-e674-4bed-b095-953e665be08e,10/1/2022 0:00,10/20/2022 0:00,4.23014E+13,42,301,"EOG Resources, Inc.",MCGREGOR D 5 UNIT #501H,31.8844394,-103.5426604,NAD83,10423.09,16573242,0,Texas,Loving,3,FALSE,FALSE,,
f69d40b3-2ac7-47e9-ae07-42ee9cc42dff,10/1/2022 0:00,10/20/2022 0:00,4.23014E+13,42,301,"EOG Resources, Inc.",MCGREGOR C 5 UNIT #401H,31.8844388,-103.542597,NAD83,10166.16,18044208,0,Texas,Loving,3,FALSE,FALSE,,
e87c7c68-ae7a-44f3-9b4c-439a9e5a9868,10/1/2022 0:00,10/20/2022 0:00,4.23014E+13,42,301,"EOG Resources, Inc.",MCGREGOR C 5 UNIT #301H,31.884439,-103.5425324,NAD83,9903.87,16946496,0,Texas,Loving,3,FALSE,FALSE,,
8c0d7a31-10e4-4cbf-9696-2f5869582efe,10/4/2022 0:00,10/20/2022 0:00,4.23014E+13,42,301,Occidental Oil and Gas,AMETHYST STATE 29-0-20-17 G 23HA,31.77043025,-103.4731586,NAD27,11974,19844207,0,Texas,Loving,3,FALSE,FALSE,,
402b3afc-9042-4e1a-bd97-03752a5309cf,10/14/2022 0:00,10/20/2022 0:00,4.23174E+13,42,317,Occidental Oil and Gas,SOUTH CURTIS RANCH 0265BP,32.09179417,-102.1054185,NAD27,9757,0,0,Texas,Martin,3,FALSE,FALSE,,
9bd0226c-c19d-4839-81e2-11282da5014a,10/20/2022 0:00,10/20/2022 0:00,4.2421E+13,42,421,Scout Energy Partners,Luther C-1,36.0919893,-101.8209359,NAD27,3320,23100,0,Texas,Sherman,3,FALSE,FALSE,,
18099b5f-b2ba-4668-ac6e-102219dc4de9,10/1/2022 8:10,10/20/2022 1:20,3.40812E+13,34,81,"Ascent Resources - Utica, LLC",Atlas NE WEL JF 9H,40.247771,-80.757251,NAD83,9807,9228444,0,Ohio,Jefferson,3,FALSE,FALSE,,
c4453ff0-10d0-4eab-8856-d2c5abd29efd,9/18/2022 7:45,10/20/2022 2:48,4.23834E+13,42,383,"Hibernia Resources, LLC",Camille A 1H,31.351881,-101.7500031,NAD83,8591,39614016,0,Texas,Reagan,3,FALSE,FALSE,,
627724ec-3c9a-42c0-a241-73863f96fe9f,10/20/2022 5:00,10/20/2022 5:00,3.51212E+13,35,121,"Oxley Energy, LLC",Schiller,34.79865,-95.668848,NAD27,9400,38127,23720,Oklahoma,Pittsburg,3,FALSE,FALSE,,
6d0fcc06-ae4f-4c22-9fa6-7cb2c04f3176,9/13/2022 5:00,10/20/2022 5:00,4.23654E+13,42,365,Comstock Oil & Gas,Sparks McJimsey A #1H,32.33252835,-94.25058992,NAD27,11203,35943627,0,Texas,Panola,3,FALSE,FALSE,,
1243dd08-76ae-457e-a55a-d86a7b66bfb6,10/1/2022 5:00,10/20/2022 5:00,4.23894E+13,42,389,UpCurve Energy LLC,Sugar Raider 5H,31.233629,-103.554611,NAD83,10687,51610,0,Texas,Reeves,3,FALSE,FALSE,,
56fb11f8-09f9-46b7-8a43-0b7fc6c26680,10/3/2022 5:00,10/20/2022 5:00,4.24953E+13,42,495,"Percussion Petroleum II, LLC",Stagecoach C 27-33-28 WA 3H,31.8014724,-103.2611305,NAD83,12027,27785239,0,Texas,Winkler,3,FALSE,FALSE,,
2cc17d34-6c03-49a9-8ad2-13164b734d70,10/8/2022 5:00,10/20/2022 5:00,4.25073E+13,42,507,"EXCO Resources, Inc.",JMH-RUBIES-POWELL ALLOC C 3H,28.790184,-99.608136,NAD83,6525,23049463,0,Texas,Zavala,3,FALSE,FALSE,,
adab41a0-d4c7-4743-ae02-06514dfabc21,9/18/2022 12:37,10/20/2022 5:35,4.23834E+13,42,383,"Hibernia Resources, LLC",Camille B 2H,31.351881,-101.74963,NAD83,8975,39407945,0,Texas,Reagan,3,FALSE,FALSE,,
512cb0ca-0fed-4311-a898-7e0dd9e24258,9/18/2022 16:54,10/20/2022 8:12,4.23834E+13,42,383,"Hibernia Resources, LLC",Camille C 3H,31.352275,-101.748234,NAD83,8703,39233858,0,Texas,Reagan,3,FALSE,FALSE,,
0d8f89f7-bda2-4864-b21e-b7bb2c8d1e9f,9/30/2022 4:54,10/20/2022 10:20,4.21234E+13,42,123,ConocoPhillips Company/Burlington Resources,Hamilton B-Hooks 3 USW B1,29.2204765,-97.3797924,NAD83,13255.1,13899612,0,Texas,DeWitt,3,FALSE,FALSE,,
53799d2c-1925-4924-a73a-fbda5b24f321,10/4/2022 12:04,10/20/2022 12:31,4.23174E+13,42,317,SM Energy,Blissard D 2095WD,32.139376,-101.73413,NAD27,9574.063,31287522,0,Texas,Martin,3,FALSE,FALSE,,
f5ad2430-7cbd-4990-bb78-8ea813e15b01,10/7/2022 0:00,10/21/2022 0:00,3.00255E+13,30,25,"EOG Resources, Inc.",CONVOY 28 STATE COM #102H,32.1944698,-103.5731898,NAD83,9477.77,18655182,0,New Mexico,Lea,3,FALSE,FALSE,,
e7f2eeb8-b7b7-46b2-84b8-83814729e9c6,10/7/2022 0:00,10/21/2022 0:00,3.00255E+13,30,25,"EOG Resources, Inc.",CONVOY 28 STATE COM #401H,32.1944378,-103.5731694,NAD83,10560.25,19110756,0,New Mexico,Lea,3,FALSE,FALSE,,
b7f9981d-867f-4e80-a3a9-0ca29876c0a6,10/19/2022 0:00,10/21/2022 0:00,3.50432E+13,35,43,Crawley Petroleum,RJT Tate Ranch 1-22MH,36.014989,-98.794079,NAD27,10546,7437402,0,Oklahoma,Dewey,3,FALSE,FALSE,,
2ecdd58b-56d4-40e4-ae37-fb9eebf77518,10/14/2022 5:00,10/21/2022 0:00,4.23174E+13,42,317,Occidental Oil and Gas,SOUTH CURTIS RANCH 0233LP,32.09176506,-102.105543,NAD27,8855,0,0,Texas,Martin,3,FALSE,FALSE,,
a58d4707-332e-457f-90de-f7ad9b833db9,9/25/2022 0:00,10/21/2022 0:00,4.23295E+13,42,329,Endeavor Energy Resources,Rio Brazos 26 15 Unit 2 273,31.8011,-102.0521,NAD27,9334,24262098,0,Texas,Midland,3,FALSE,FALSE,,
2f9cbef5-6844-4375-b552-d4bb508881ce,10/9/2022 0:00,10/21/2022 0:00,4.23295E+13,42,329,Pioneer Natural Resources,Fischer Coulson E10A 1H,32.029252,-101.783743,NAD27,8180,17678894,0,Texas,Midland,3,FALSE,FALSE,,
e226d907-875c-4632-97e4-de32668d71b8,10/9/2022 0:00,10/21/2022 0:00,4.23295E+13,42,329,Pioneer Natural Resources,Fischer Coulson E10B 2H,32.029172,-101.783719,NAD27,8831,17783841,0,Texas,Midland,3,FALSE,FALSE,,
8caaa7eb-6420-4503-b2d6-319676a7ffb0,10/9/2022 0:00,10/21/2022 0:00,4.23295E+13,42,329,Pioneer Natural Resources,Fischer Coulson E10C 3H,32.029092,-101.783695,NAD27,8160,17504934,0,Texas,Midland,3,FALSE,FALSE,,
d071fbbc-f43b-4ff3-ab47-7ed55eabb974,10/13/2022 12:05,10/21/2022 3:42,3.3023E+13,33,23,"KODA Resources Operating, LLC",BOCK 3211-1BH,48.721922,-103.948844,NAD83,8671,10418730,0,North Dakota,Divide,3,FALSE,FALSE,,
4d8d4748-e4b9-4502-a58a-a8afba5dfdca,10/20/2022 4:00,10/21/2022 4:00,4.50271E+13,45,27,"EnerVest, Ltd.",VC-504870,37.061886,-82.087665,WGS84,2975,42840,,Virginia,Buchanan,3,FALSE,FALSE,,
e49178c2-67e2-438b-a187-f579101221ed,10/13/2022 5:00,10/21/2022 5:00,5.12348E+12,5,123,Upland Exploration LLC,Salt Ranch Fee 207-2029H,40.91452,-104.58402,NAD83,7988.6,24471438,0,Colorado,Weld,3,FALSE,FALSE,,
16cf74c0-16b4-40b5-a2ca-7a5ad886b445,10/13/2022 13:14,10/21/2022 5:00,3.3023E+13,33,23,"KODA Resources Operating, LLC",BOCK 3229-2BH,48.72184,-103.948844,NAD83,8565.55,10402980,0,North Dakota,Divide,3,FALSE,FALSE,,
307a67f0-9662-457e-b1d6-d06360b069a4,10/1/2022 5:00,10/21/2022 5:00,3.50512E+13,35,51,Gulfport Energy Corporation,ONEAL 1-05X08H,34.7698,-97.7521,NAD27,15220,34015257,5794,Oklahoma,Grady,3,FALSE,FALSE,,
a63e9a98-75e9-43cb-a4f7-1c6fd8af6ddb,10/1/2022 5:00,10/21/2022 5:00,3.50512E+13,35,51,Gulfport Energy Corporation,ONEAL 2-05X08H,34.7697,-97.7521,NAD27,15248,33631103,5794,Oklahoma,Grady,3,FALSE,FALSE,,
6a9c9605-dbe7-48ba-be37-1554d1f70b2f,10/7/2022 5:00,10/21/2022 5:00,4.22554E+13,42,255,Ensign Operating LLC,Davis 01 12H,28.8487184,-97.8192711,NAD27,13177,7809984,0,Texas,Karnes,3,FALSE,FALSE,,
0edafab2-8937-4be6-bf3b-7a55b0c642a2,10/7/2022 5:00,10/21/2022 5:00,4.22554E+13,42,255,Ensign Operating LLC,Davis 01 13H,28.8487798,-97.8192085,NAD27,13104,8203650,0,Texas,Karnes,3,FALSE,FALSE,,
8f709167-bf01-4560-b359-9540f1ab59d8,10/7/2022 5:00,10/21/2022 5:00,4.22554E+13,42,255,Ensign Operating LLC,Davis 01 14H,28.8488412,-97.8191458,NAD27,13197,8124270,0,Texas,Karnes,3,FALSE,FALSE,,
439dfede-8fb3-4d9c-8986-a74013733a2a,10/7/2022 5:00,10/21/2022 5:00,4.22554E+13,42,255,Ensign Operating LLC,Davis 01 15H,28.8489025,-97.8190832,NAD27,13201,8378244,0,Texas,Karnes,3,FALSE,FALSE,,
0ce2f34d-e188-443c-b961-67e0d274c67c,10/7/2022 5:00,10/21/2022 5:00,4.22554E+13,42,255,Ensign Operating LLC,Davis 01 16H,28.8489639,-97.8190206,NAD27,13132,8475810,0,Texas,Karnes,3,FALSE,FALSE,,
d3cec333-2b7c-4287-8ced-a0ed07e67bae,9/25/2022 5:00,10/21/2022 5:00,4.23295E+13,42,329,Endeavor Energy Resources,Rio Brazos 26 15 Unit 2 174,31.801085,-102.052266,NAD27,8570,23753781,0,Texas,Midland,3,FALSE,FALSE,,
50035bba-eac2-40ae-a4ac-6bb93a24972a,9/25/2022 5:00,10/21/2022 5:00,4.23295E+13,42,329,Endeavor Energy Resources,Rio Brazos 26 15 Unit 2 281,31.801068,-102.052344,NAD27,9646,24064152,0,Texas,Midland,3,FALSE,FALSE,,
ea6403b4-e9ee-4f55-bd43-73b428b1fe81,9/25/2022 5:00,10/21/2022 5:00,4.23295E+13,42,329,Endeavor Energy Resources,Rio Brazos 26 15 Unit 2 182,31.801051,-102.052422,NAD27,8239,24064152,0,Texas,Midland,3,FALSE,FALSE,,
00b75bc8-49b3-453b-8186-6827a029a125,9/25/2022 5:00,10/21/2022 5:00,4.23295E+13,42,329,Endeavor Energy Resources,Rio Brazos 26 15 Unit 2 183,31.801033,-102.0525,NAD27,8938,29652084,0,Texas,Midland,3,FALSE,FALSE,,
04d1336f-2752-4420-af97-8845255c4a4e,10/2/2022 5:00,10/21/2022 5:00,4.23894E+13,42,389,UpCurve Energy LLC,Sugar Raider 2H,31.233675,-103.554329,NAD83,10226,34831,0,Texas,Reeves,3,FALSE,FALSE,,
44091612-c107-4cc1-86e1-2821dc4ffcfa,9/12/2022 6:00,10/21/2022 6:00,5.00507E+12,5,5,Crestone Peak Resources,EASTERN HILLS 04-65 17-18 03EH,39.700055,-104.680888,NAD83,7875,30695420,0,Colorado,Arapahoe,3,FALSE,FALSE,,
0dc708c1-8faf-4148-b2d5-808e9dcd7029,10/11/2022 5:14,10/21/2022 6:49,4.22853E+13,42,285,Penn Virginia Corporation,Charon A 1H,29.6217485,-97.1445359,NAD83,10695.3,16480462,0,Texas,Lavaca,3,FALSE,FALSE,,
adee730d-100d-46b3-8434-2280b62f11ea,10/11/2022 2:30,10/21/2022 9:47,4.22853E+13,42,285,Penn Virginia Corporation,Charon B 2H,29.621797,-97.1445351,NAD83,10659,17146860,0,Texas,Lavaca,3,FALSE,FALSE,,
4a39dde1-7262-43f9-b140-6c58ce7948f3,10/12/2022 12:10,10/21/2022 11:19,4.21734E+13,42,173,"CrownQuest Operating, LLC",Lexington G #13LM,31.851359,-101.743474,NAD83,7992,16189047,0,Texas,Glasscock,3,FALSE,FALSE,,
2da5dd0e-6055-47f9-a950-870a6facd756,10/6/2022 10:51,10/21/2022 12:23,4.24754E+13,42,475,"Continental Resources, Inc",UTL 1427 7D 6H,31.6153954,-103.1771367,NAD83,11079.5,20706305,0,Texas,Ward,3,FALSE,FALSE,,
33d174c2-f64c-4586-a32f-4c24448235f5,10/13/2022 0:43,10/21/2022 12:49,5.12348E+12,5,123,Upland Exploration LLC,Salt Ranch Fee 201-1830H,40.914519,-104.584187,NAD83,8011.7,24077920,0,Colorado,Weld,3,FALSE,FALSE,,
2946425f-94a4-4883-a5f0-2d307dd30793,10/12/2021 10:27,10/21/2022 13:26,4.21734E+13,42,173,"CrownQuest Operating, LLC",Lexington G #104HD,31.851265,-101.743865,NAD83,10080,20731234,0,Texas,Glasscock,3,FALSE,FALSE,,
b7245fd0-e14c-4276-876d-41babfdbd1a2,10/6/2022 19:39,10/21/2022 14:38,4.24754E+13,42,475,"Continental Resources, Inc",UTL 1427 7F 8H,31.615238,-103.177078,NAD83,10997.3,21590174,0,Texas,Ward,3,FALSE,FALSE,,
2428f880-cbcb-4d1c-9e81-75c5973c9cce,10/8/2022 5:53,10/21/2022 15:13,2.50832E+13,25,83,Prima Exploration Inc.,Butch Cassidy 4H,47.89592,-104.152801,NAD83,10423,12247980,0,Montana,Richland,3,FALSE,FALSE,,
dbb83bd3-aca7-49c8-abd8-0fbf5c3ab3cf,10/3/2022 4:50,10/21/2022 16:45,4.21773E+13,42,177,Marathon Oil ,BILSKY-CHUMCHAL SA1 1H,29.415197,-97.254564,NAD83,11707,18779880,0,Texas,Gonzales,3,FALSE,FALSE,,
773cb9a8-c0ac-46eb-8c0b-65bb2353ae4a,10/21/2022 13:00,10/21/2022 17:00,3.51192E+13,35,119,"Roberson Oil Company, Inc.",Caldwell 5-10,36.046841,-97.069648,NAD83,4412,12474,0,Oklahoma,Payne,3,FALSE,FALSE,,
457a4f6a-a07f-4999-be24-e06da943ff8c,9/28/2022 14:38,10/21/2022 17:10,2.50832E+13,25,83,Prima Exploration Inc.,Butch Cassidy 3H,47.89592,-104.152934,NAD83,10421,12306528,0,Montana,Richland,3,FALSE,FALSE,,
ec1aeb86-f91f-4a3a-8217-bc121bc7dfc7,9/28/2022 11:15,10/21/2022 18:17,2.50832E+13,25,83,Prima Exploration Inc.,Butch Cassidy 2H,47.89592,-104.153046,NAD83,10424,12424958,0,Montana,Richland,3,FALSE,FALSE,,
ff4d4805-e83c-446e-bd0a-b0dcfd284dc3,9/28/2022 7:14,10/21/2022 19:38,2.50832E+13,25,83,Prima Exploration Inc.,Butch Cassidy 1H,47.89592,-104.153168,NAD83,10384,12366682,0,Montana,Richland,3,FALSE,FALSE,,
49785862-dff2-4e15-ad17-f7710a8c861c,10/14/2022 2:00,10/21/2022 21:45,4.24953E+13,42,495,"Percussion Petroleum II, LLC",Stagecoach A 27-33-28 TB 1H,31.8014221,-103.261344,NAD83,11587,12735876,0,Texas,Winkler,3,TRUE,FALSE,,
8ef76185-b35a-4837-b64d-9bb90ef9ba7c,10/3/2022 1:27,10/21/2022 22:29,4.21773E+13,42,177,Marathon Oil ,BILSKY-CHUMCHAL SA2 2H,29.415208,-97.254486,NAD83,11777,19390518,0,Texas,Gonzales,3,FALSE,FALSE,,
801d847a-b32c-4835-96b1-36a1d0a4cbf7,10/7/2022 7:11,10/21/2022 23:56,4.24754E+13,42,475,"Continental Resources, Inc",UTL 1427 7E 7H,31.6153169,-103.1771073,NAD83,11490.35,22288377,0,Texas,Ward,3,FALSE,FALSE,,
5f05a638-10d3-46c2-a2cd-82e7b23a6f3c,10/19/2022 0:00,10/22/2022 0:00,3.50432E+13,35,43,Duncan Oil Properties,OMMEN 5-14H,35.85493,-99.29366,NAD27,9560,4336341,194703,Oklahoma,Dewey,3,FALSE,FALSE,,
d6b3eee7-aff5-4297-9535-7b591cc0d754,10/3/2022 0:00,10/22/2022 0:00,4.23834E+13,42,383,Pioneer Natural Resources,Sherrod C28A 1H,31.5061525,-101.7391689,NAD27,9188,26590520,0,Texas,Reagan,3,FALSE,FALSE,,
44237798-a54a-4670-a6c5-9fdfde1cbeef,10/4/2022 0:00,10/22/2022 0:00,4.23834E+13,42,383,Pioneer Natural Resources,Sherrod C28B 2H,31.5061744,-101.7390761,NAD27,8580,24120164,0,Texas,Reagan,3,FALSE,FALSE,,
cd598059-a357-4959-92c4-22f52a570fca,10/4/2022 0:00,10/22/2022 0:00,4.23834E+13,42,383,Pioneer Natural Resources,Sherrod C28C 3H,31.5061964,-101.7389833,NAD27,8914,26849454,0,Texas,Reagan,3,FALSE,FALSE,,
3fc10193-56c3-4a9d-a5c4-452aea929bb8,10/1/2022 0:00,10/22/2022 0:00,4.23834E+13,42,383,Chevron USA Inc.,Cider B 203-226 3H,31.204611,-101.410575,NAD27,7606,33747000,0,Texas,Reagan,3,FALSE,FALSE,,
6bcdbfb7-7c6a-4cea-9408-9af23c504bc1,10/1/2022 0:00,10/22/2022 0:00,4.23834E+13,42,383,Chevron USA Inc.,Cider B 203-226 4H,31.204556,-101.410576,NAD27,7344,33927558,0,Texas,Reagan,3,FALSE,FALSE,,
f64d0511-22fb-44e1-ac03-5a9154a7acaf,10/1/2022 0:00,10/22/2022 0:00,4.23834E+13,42,383,Chevron USA Inc.,Cider A 203-226 5H,31.2045,-101.410577,NAD27,7626,33694290,0,Texas,Reagan,3,FALSE,FALSE,,
e448cdec-b343-4769-bf96-41986dafbdc8,10/21/2022 0:00,10/22/2022 0:00,4.30135E+13,43,13,"Berry Petroleum Company, LLC",Federal 10-7D-65,39.97535,-110.4931339,NAD83,6907,571284.42,0,Utah,Duchesne,3,FALSE,FALSE,,
2b55f435-ccfe-471a-8c14-5cefb0017b95,10/1/2022 23:21,10/22/2022 1:01,3.40812E+13,34,81,"Ascent Resources - Utica, LLC",Atlas NE WEL JF 7H,40.247723,-80.757286,NAD83,9777,9647754,0,Ohio,Jefferson,3,FALSE,FALSE,,
8bf0e561-0974-4440-b017-86a3922aace2,10/3/2022 8:18,10/22/2022 1:34,4.21773E+13,42,177,Marathon Oil ,BILSKY-BILSKY-CHUMCHAL SA 1H,29.431483,-97.265036,NAD83,11692,18340182,0,Texas,Gonzales,3,FALSE,FALSE,,
c615941b-7e74-4d53-a3cc-f7807b481a1b,10/20/2022 5:00,10/22/2022 5:00,3.50733E+13,35,73,Mach Resources,Johnson Family Trust 18-15-5 2MH,35.7847,-97.767701,NAD83,7286,9202110,0,Oklahoma,Kingfisher,3,FALSE,FALSE,,
352bb726-3e2e-423a-90de-0c892a83889f,10/8/2022 0:00,10/22/2022 5:00,4.23014E+13,42,301,Occidental Oil and Gas,AMETHYST STATE 29-0-20-17 C 13HA,31.77040517,-103.4732506,NAD27,11652,18299637,0,Texas,Loving,3,FALSE,FALSE,,
dc1e1902-f2b2-448d-851c-01cad6e37131,10/4/2022 0:00,10/22/2022 5:00,4.23014E+13,42,301,Occidental Oil and Gas,AMETHYST STATE 29-0-20-17 J 83HA,31.77045545,-103.4730665,NAD27,11490,16098249,0,Texas,Loving,3,FALSE,FALSE,,
f3f5e193-5f91-4787-af30-41e301a0c99e,10/2/2022 5:00,10/22/2022 5:00,4.23174E+13,42,317,Diamondback E&P LLC,UL COMANCHE P 29 42 6WA 6WA,32.4878,-102.1963,NAD27,9737.4,25715548,0,Texas,Martin,3,FALSE,FALSE,,
c7ec50e4-5167-41b3-81f4-3fade228b9b9,10/2/2022 5:00,10/22/2022 5:00,4.23174E+13,42,317,Diamondback E&P LLC,UL COMANCHE O 29 42  6LS,32.4878,-102.1964,NAD27,9368.3,19297853,0,Texas,Martin,3,FALSE,FALSE,,
392a0c4d-eb05-40b6-85e9-33053d94075f,10/1/2022 5:00,10/22/2022 5:00,4.23174E+13,42,317,Diamondback E&P LLC,UL COMANCHE N 29 42  6JM,32.4878,-102.1965,NAD27,9046.4,19332191,0,Texas,Martin,3,FALSE,FALSE,,
951531e2-5dc2-45c3-a42c-ec96d6d336e2,10/2/2022 5:00,10/22/2022 5:00,4.23174E+13,42,317,Diamondback E&P LLC,UL COMANCHE L 29 42  7LS,32.4878,-102.1966,NAD27,9354.5,19299399,0,Texas,Martin,3,FALSE,FALSE,,
775af886-39fc-4bdd-bd73-ce8fa35d1480,10/1/2022 5:00,10/22/2022 5:00,4.23174E+13,42,317,Diamondback E&P LLC,UL COMANCHE W 29 42  8LS,32.4878,-102.1967,NAD27,9361.2,19305230,0,Texas,Martin,3,FALSE,FALSE,,
07df2ea2-5289-409c-b9ae-d89b2046cac5,9/24/2022 5:00,10/22/2022 5:00,4.23174E+13,42,317,Diamondback E&P LLC,CHAMONIX 247 C 2JM 2JM,32.39003794,-102.0538449,NAD27,8666.04,24406006,0,Texas,Martin,3,FALSE,FALSE,,
4e464b1c-0a14-45e0-8609-cdddac2abcbc,10/2/2022 5:00,10/22/2022 5:00,4.23174E+13,42,317,Diamondback E&P LLC,UL COMANCHE M 29 42  7WA,32.4878367,-102.1965886,NAD27,9721.4,25708279,0,Texas,Martin,3,FALSE,FALSE,,
86417f4a-2ea4-4fa0-b6ad-5cc48b2dc92c,10/2/2022 5:00,10/22/2022 5:00,4.23953E+13,42,395,Comstock Oil & Gas,Cazey Black A #1H,31.08958952,-96.40602833,NAD27,15927,34590424,0,Texas,Robertson,3,FALSE,FALSE,,
93022875-5d7b-4eea-acb8-a9f314609013,10/3/2022 18:42,10/22/2022 5:09,4.21773E+13,42,177,Marathon Oil ,BILSKY-CHUMCHAL SA3 3H,29.415222,-97.254408,NAD83,11727,19080684,0,Texas,Gonzales,3,FALSE,FALSE,,
12758b28-0f94-43fd-9092-0d569f7e2f93,10/19/2022 6:00,10/22/2022 6:00,5.12348E+12,5,123,PDC Energy,Ridgway 3N,40.25973,-104.73214,NAD83,7081,1829801,0,Colorado,Weld,3,FALSE,FALSE,,
58273705-5e4e-409a-aeee-f11f90bf1d74,10/3/2022 7:41,10/22/2022 9:21,4.24754E+13,42,475,"Continental Resources, Inc",UTL 1427 7H 10H,31.612007,-103.175701,NAD83,11059.512,21201291,0,Texas,Ward,3,FALSE,FALSE,,
cbe355d8-2301-4fbf-a9a2-526e895ffd5e,10/19/2022 14:45,10/22/2022 14:46,4.25014E+13,42,501,"Ring Energy, Inc.",Razorback 663 B 3H,33.066329,-102.996593,NAD83,5285,3237830,255016,Texas,Yoakum,3,FALSE,FALSE,,
0ee23a57-ef80-4e15-90cd-57d128674873,10/19/2022 18:10,10/22/2022 16:48,4.25014E+13,42,501,"Ring Energy, Inc.",Razorback 663 C 4H,33.066328,-102.998702,NAD83,5281,3153272,254230,Texas,Yoakum,3,FALSE,FALSE,,
3de9a61c-b258-4f28-9b44-1a7218248cd9,10/3/2022 15:49,10/22/2022 16:59,4.24754E+13,42,475,"Continental Resources, Inc",UTL 1427 7G 9H,31.612099,-103.175736,NAD83,11342.089,21315681,0,Texas,Ward,3,FALSE,FALSE,,
940ce704-f5a0-4cf1-b049-0bb041bf391a,10/7/2022 13:21,10/22/2022 18:15,4.23174E+13,42,317,SM Energy,Apollo Whitaker 2192WD,32.139397,-101.734036,NAD27,9563.932,30731736,0,Texas,Martin,3,FALSE,FALSE,,
fa6d9cb3-ea74-4a57-8303-60183d15195f,10/11/2022 23:00,10/22/2022 18:57,3.70152E+13,37,15,"Chesapeake Operating, Inc.",SGL-12 M South Unit 2H,41.63199,-76.67906,NAD83,8521,6134646,0,Pennsylvania,Bradford,3,FALSE,FALSE,,
26e772ff-7ff1-4a92-8c2b-9b8b64b93cbb,10/3/2022 18:39,10/22/2022 19:10,4.24754E+13,42,475,"Continental Resources, Inc",UTL 1427 7J 12H,31.61185,-103.175643,NAD83,11329.05,21240133,0,Texas,Ward,3,FALSE,FALSE,,
853634a8-f679-4cec-9f42-cee897e232df,10/3/2022 21:21,10/22/2022 21:29,4.24754E+13,42,475,"Continental Resources, Inc",UTL 1427 7I 11H,31.6119285,-103.1756721,NAD83,11651.66226,21285931,0,Texas,Ward,3,FALSE,FALSE,,
d60e4d6f-a757-4d6e-83cb-9db3a0d6e41e,10/21/2022 0:00,10/23/2022 0:00,5.07108E+12,5,71,Evergreen Natural Resources LLC,Lorencito 4-15-34-66 TR,37.08998,-104.77484,WGS84,1540,44394,9820,Colorado,Las Animas,3,FALSE,FALSE,,
504d3a84-df43-4606-9355-bc616f6ca042,10/11/2022 0:00,10/23/2022 0:00,3.00255E+13,30,25,Chevron USA Inc.,DL 10 15 OGOPOGO FED COM 424H,32.404481,-103.555604,NAD27,10976,18642036,0,New Mexico,Lea,3,FALSE,FALSE,,
b1995715-94e8-4ada-9a48-9a277bc5367e,10/11/2022 0:00,10/23/2022 0:00,3.50733E+13,35,73,Ovintiv Mid-Continent Inc. ,COFFEY 1507 3H-27X,35.753822,-97.933158,NAD27,8431,25888758,0,Oklahoma,Kingfisher,3,FALSE,FALSE,,
0d3e6323-b942-4c47-9024-1b02fb5eb191,10/22/2022 0:00,10/23/2022 0:00,4.30135E+13,43,13,"Berry Petroleum Company, LLC",Federal 11-7D-65,39.975478,-110.4932639,NAD83,6740,540104.46,0,Utah,Duchesne,3,FALSE,FALSE,,
a9cf8559-9d22-4788-9620-a96e715681e9,10/23/2022 0:00,10/23/2022 0:00,4.30135E+13,43,13,"Berry Petroleum Company, LLC",Federal 12-7D-65,39.975659,-110.4933249,NAD83,6390,427255.92,0,Utah,Duchesne,3,FALSE,FALSE,,
092f8fee-6009-40ae-9884-c1d90fe7d880,10/14/2022 5:00,10/23/2022 5:00,1.70153E+13,17,15,Tellurian Operating LLC,Hodges Family 19H 4 Alt,32.365827,-93.429062,NAD27,11530,16304652,0,Louisiana,Bossier,3,FALSE,FALSE,,
96e2590a-e4a5-40be-ba92-c9be7baa7346,10/11/2022 5:00,10/23/2022 5:00,3.50733E+13,35,73,"Paloma Operating Co, Inc",Roadrunner 6_7-16N-7W 2MHX,35.899263,-97.986224,NAD27,8200,23868396,0,Oklahoma,Kingfisher,3,FALSE,FALSE,,
a62554c1-de4f-45e8-b468-65bbc07f97f1,10/11/2022 5:00,10/23/2022 5:00,3.50733E+13,35,73,"Paloma Operating Co, Inc",Roadrunner 6_7-16N-7W 3MHX,35.899264,-97.986291,NAD27,8126,24372123,0,Oklahoma,Kingfisher,3,FALSE,FALSE,,
a8e09269-7b6a-458f-9e98-7105f4d4833f,10/9/2022 5:00,10/23/2022 5:00,4.23014E+13,42,301,COG Operating LLC,Aftermath East B Unit 304H,31.931246,-103.336416,NAD83,12182,23139762,0,Texas,Loving,3,FALSE,FALSE,,
dac77bdf-9e1b-46dd-852e-e8c0115149f8,9/15/2022 5:00,10/23/2022 5:00,4.23894E+13,42,389,Tall City Operations III LLC,Otter 139-138 Unit E #16H,31.165231,-103.661724,NAD83,10308,11804478,0,Texas,Reeves,3,FALSE,FALSE,,
cc60a8a1-7013-4bbb-80de-1b924a319c1c,10/2/2022 5:00,10/23/2022 5:00,4.23894E+13,42,389,UpCurve Energy LLC,Sugar Raider 4H,31.233611,-103.554517,NAD83,10630,56537,0,Texas,Reeves,3,FALSE,FALSE,,
7bfde7e8-5e9d-43e1-9925-8f359bf9f56b,10/1/2022 5:00,10/23/2022 5:00,4.24053E+13,42,405,Aethon Energy Operating LLC,Sally Ride 2H,31.583563,-94.21918,NAD27,13236,866977,0,Texas,San Augustine,3,FALSE,FALSE,,
982b6c89-02a9-4d27-a290-60a78ce79208,9/22/2022 5:00,10/23/2022 5:00,4.24053E+13,42,405,Aethon Energy Operating LLC,Sally Ride 1H,31.583562,-94.219237,NAD27,12989,861086,0,Texas,San Augustine,3,FALSE,FALSE,,
9c8ab521-49f0-41f0-88bd-21ed4a5e71e9,10/20/2022 18:33,10/23/2022 5:47,3.3061E+13,33,61,Hunt Oil Company,BARTELSON 1-33H,48.124006,-102.131944,NAD83,9081.5,3617277,0,North Dakota,Mountrail,3,FALSE,FALSE,,
ab6b0253-2e88-472a-adfe-d53e6a16341e,10/21/2022 6:00,10/23/2022 6:00,5.06708E+12,5,67,SIMCOE LLC,Federal Land Bank C 2,37.1505,-107.7761,WGS84,3115,174269,0,Colorado,La Plata,3,FALSE,FALSE,,
7a85160a-535d-4a4b-b951-acde0a34d43e,10/21/2022 6:00,10/23/2022 6:00,5.0671E+12,5,67,SIMCOE LLC,Federal Land Bank C 4,37.1508,-107.7759,WGS84,3025,185237,0,Colorado,La Plata,3,FALSE,FALSE,,
53110cc4-a696-4c41-9aa2-2bb5f71887de,10/21/2022 6:00,10/23/2022 6:00,5.0671E+12,5,67,SIMCOE LLC,Federal Land Bank C 3,37.1507,-107.776,WGS84,3169,156945,0,Colorado,La Plata,3,FALSE,FALSE,,
25301f39-613a-404c-b28e-32ebf7fdff15,10/19/2022 6:00,10/23/2022 6:00,5.12348E+12,5,123,PDC Energy,Ridgway 6N,40.25974,-104.73198,NAD83,7171,3447712,0,Colorado,Weld,3,FALSE,FALSE,,
bc6bc409-2fab-4ea8-bc87-cf80770d5ad5,10/19/2022 6:00,10/23/2022 6:00,5.12348E+12,5,123,PDC Energy,Ridgway 4N,40.25974,-104.73209,NAD83,7181,2964905,0,Colorado,Weld,3,FALSE,FALSE,,
f9ec3730-eea2-4ce6-a011-a1d825ee66bf,10/20/2022 6:00,10/23/2022 6:00,5.12348E+12,5,123,PDC Energy,Ridgway 2N,40.25973,-104.7322,NAD83,7181,1681691,0,Colorado,Weld,3,FALSE,FALSE,,
2db42e81-7e29-4208-97a3-1f8dd3d65188,10/20/2022 6:00,10/23/2022 6:00,5.12351E+12,5,123,PDC Energy,Ridgway 1N,40.25973,-104.73224,NAD83,7084,2035606,0,Colorado,Weld,3,FALSE,FALSE,,
33aab23f-29c2-4681-a4c9-15754ae0ed87,10/4/2022 6:00,10/23/2022 6:00,4.23014E+13,42,301,MEWBOURNE OIL COMPANY,TXL 37 48 W102CN,31.91216,-103.8182376,NAD83,10785,24217452,0,Texas,Loving,3,FALSE,FALSE,,
40fdd66e-f25d-403a-9393-fc1a964ee36e,10/4/2022 6:00,10/23/2022 6:00,4.23014E+13,42,301,MEWBOURNE OIL COMPANY,TXL 37 48  W101CN,31.91216,-103.818173,NAD83,10800,24210858,0,Texas,Loving,3,FALSE,FALSE,,
cf91fdfa-144b-4897-96a1-ac21e6204329,10/1/2022 6:00,10/23/2022 6:00,4.7095E+13,47,95,Antero Resources Corporation,CLUTTER UNIT 1H,39.49362,-80.95612,WGS84,6113,27616593,0,West Virginia,Tyler,3,FALSE,FALSE,,
36c36eb1-bc67-41e0-87d9-3672ebea2e38,10/23/2022 8:28,10/23/2022 10:03,5.10309E+12,5,103,Utah Gas Corporation,Dragon Trail Unit 1107,39.850899,-108.835042,NAD83,3580,62664,0,Colorado,Rio Blanco,3,TRUE,FALSE,,
98bc9818-2ef0-401f-bf9e-a9a26b06e931,10/11/2022 17:12,10/23/2022 14:18,3.70152E+13,37,15,"Chesapeake Operating, Inc.",SGL-12 M South Unit 3H,41.63204,-76.67902,NAD83,8564,8457624,0,Pennsylvania,Bradford,3,FALSE,FALSE,,
a3164452-1741-4117-a09b-61b786f46a97,10/8/2022 2:02,10/23/2022 14:25,4.23014E+13,42,301,COG Operating LLC,Aftermath East A Unit 303H,31.903583,-103.328951,NAD83,12185,22716154,0,Texas,Loving,3,FALSE,FALSE,,
99412892-5a8a-46f8-a38b-e44e0c1c3f27,10/16/2022 8:29,10/23/2022 15:07,4.23894E+13,42,389,UpCurve Energy LLC,Sugar Raider 1H,31.233576,-103.554329,NAD83,10233,46728,0,Texas,Reeves,3,FALSE,FALSE,,
910dda99-f809-4474-8b58-b80da655843f,10/13/2022 20:15,10/23/2022 16:30,1.70153E+13,17,15,Tellurian Operating LLC,Hodges Family 19H 3 Alt,32.3657129,-93.4290615,NAD27,11530,15815100,0,Louisiana,Bossier,3,FALSE,FALSE,,
388a607f-17d5-41e9-9f07-b67f7c944b51,10/19/2022 2:16,10/23/2022 17:35,3.00432E+13,30,43,"DJR OPERATING, LLC",VENADO CANYON UNIT 302H,36.138752,-107.432066,NAD83,5420.5,2008532,0,New Mexico,Sandoval,3,TRUE,FALSE,,
c0b05719-1f70-4017-83d4-a19953f6defd,10/11/2022 20:16,10/23/2022 18:57,3.70152E+13,37,15,"Chesapeake Operating, Inc.",SGL-12 M South Unit 1H,41.63195,-76.67911,NAD83,8489,6282528,0,Pennsylvania,Bradford,3,FALSE,FALSE,,
e38ccd80-a356-4339-a967-4fe7f82f80b7,9/23/2022 14:35,10/23/2022 20:00,4.30474E+13,43,47,Utah Gas Corporation,LCU 11-9H,39.87376,-109.68622,NAD83,10560,290507,0,Utah,Uintah,3,TRUE,FALSE,,
1ebb2151-975f-40f6-bec4-143816bea0b4,10/11/2022 21:45,10/23/2022 22:15,3.70152E+13,37,15,"Chesapeake Operating, Inc.",SGL-12 L South Unit 5H,41.63191,-76.67915,NAD83,8458,6906732,0,Pennsylvania,Bradford,3,FALSE,FALSE,,
be865b0f-7cbd-411a-8b88-e449da257f6e,10/21/2022 0:00,10/24/2022 0:00,2.50832E+13,25,83,"White Rock Oil & Gas, LLC",BR 31-7H,47.774287,-104.711045,NAD83,10060,1561302,0,Montana,Richland,3,FALSE,FALSE,,
29877497-0e61-43dd-9d62-777c3e386a88,10/10/2022 0:00,10/24/2022 0:00,3.00255E+13,30,25,Chevron USA Inc.,DL 10 15 OGOPOGO FED COM 422h,32.404482,-103.555766,NAD27,10970,18605748,0,New Mexico,Lea,3,FALSE,FALSE,,
bcfac515-d28f-405d-83fd-dc3eaa7330c1,10/11/2022 0:00,10/24/2022 0:00,3.00255E+13,30,25,Chevron USA Inc.,DL 10 15 OGOPOGO FED COM 423H,32.404482,-103.555685,NAD27,10732,18884796,0,New Mexico,Lea,3,FALSE,FALSE,,
2956ebaf-96da-4b90-968f-018a528b89ea,10/11/2022 0:00,10/24/2022 0:00,3.40192E+13,34,19,"EOG Resources, Inc.",ROSE 0816 #2H,40.590449,-81.232918,NAD83,7051.1,19103238,0,Ohio,Carroll,3,FALSE,FALSE,,
1005eee8-1ee8-42f2-b1ad-48e46531be50,10/2/2022 10:05,10/24/2022 0:49,3.40812E+13,34,81,"Ascent Resources - Utica, LLC",Atlas N WEL JF 5H,40.247675,-80.757321,NAD83,9791,16944271,0,Ohio,Jefferson,3,FALSE,FALSE,,
dd95d91f-bae3-4640-b9e0-4b8f437df861,10/19/2022 5:16,10/24/2022 3:51,3.00432E+13,30,43,"DJR OPERATING, LLC",VENADO CANYON UNIT 503H,36.138588,-107.432091,NAD83,4970.7,1991485,0,New Mexico,Sandoval,3,TRUE,FALSE,,
a0d8c4f7-7b3f-49e5-9668-6e2617c2869a,10/2/2022 4:24,10/24/2022 4:35,3.40812E+13,34,81,"Ascent Resources - Utica, LLC",Atlas NW WEL JF 1H,40.24758,-80.757391,NAD83,9762,13802675,0,Ohio,Jefferson,3,FALSE,FALSE,,
d6f6f152-6dc6-4715-996f-02f94dde0629,10/19/2022 5:00,10/24/2022 5:00,3.50193E+13,35,19,XTO Energy/ExxonMobil,Hewitt Unit 15-4304,34.20642,-97.39984,NAD27,2963,617826,0,Oklahoma,Carter,3,FALSE,FALSE,,
ea264569-cf01-43b6-8a13-a23021dc18e7,10/19/2022 5:00,10/24/2022 5:00,3.50292E+13,35,29,"Pablo Energy II, LLC",Lewis 2H-31,34.520904,-96.288432,NAD83,11485,9248274,30000,Oklahoma,Coal,3,FALSE,FALSE,,
896bf28b-e5de-401e-bca3-c3114becc860,10/19/2022 5:00,10/24/2022 5:00,3.50292E+13,35,29,"Pablo Energy II, LLC",Lewis 3H-31,34.520904,-96.288372,NAD83,6800,9744924,31500,Oklahoma,Coal,3,FALSE,FALSE,,
9d26ff74-6d2a-4194-b090-22954b21bc47,10/15/2022 6:00,10/24/2022 6:00,3.00155E+13,30,15,MEWBOURNE OIL COMPANY,ROCK SPUR 27 W0DM FED COM 2H,32.19492661,-104.0823588,NAD83,9570,11341932,0,New Mexico,Eddy,3,TRUE,FALSE,,
7c1a9cb5-ddf3-4263-84c4-4325d2f49a99,10/18/2022 6:00,10/24/2022 6:00,3.30611E+13,33,61,Whiting Petroleum,SMITH 12-7TFX,48.0889,-102.438,NAD27,10390.99,9151963.8,0,North Dakota,Mountrail,3,FALSE,FALSE,,
5da54d80-28ed-41b1-a91b-4fa050716fc8,10/19/2022 6:00,10/24/2022 6:00,3.30611E+13,33,61,Whiting Petroleum,SMITH  12 7 2H,48.0889,-102.4379,NAD27,10264.06,9029151.6,0,North Dakota,Mountrail,3,FALSE,FALSE,,
0fc90feb-7eb4-436d-8fb9-1cafb73589be,10/18/2022 17:26,10/24/2022 7:22,4.24794E+13,42,479,SilverBow Resources,Fasken State 205H,27.875922,-99.77753655,NAD83,9462.7,11676781,0,Texas,Webb,3,FALSE,FALSE,,
c71ed8f2-7cdb-47d6-8c03-df85dfe01d47,10/16/2022 19:01,10/24/2022 9:39,3.3025E+13,33,25,"Lime Rock Resources, LP",ELEANOR TWIST 3-3-10H 143-95,47.239965,-102.707809,NAD83,11159.8,9133978,0,North Dakota,Dunn,3,FALSE,FALSE,,
cbf5b58b-8b89-45b6-a5a5-5b2df2a9f7b4,10/24/2022 8:52,10/24/2022 10:32,4.20034E+13,42,3,XTO Energy/ExxonMobil,FCU 1539,32.444804,-102.783219,NAD83,7340,146472,12540,Texas,Andrews,3,FALSE,FALSE,,
be93f891-54eb-4dd8-9d37-286438c1bf00,10/16/2022 22:33,10/24/2022 11:48,3.3025E+13,33,25,"Lime Rock Resources, LP",ELEANOR TWIST 4-3-10H-143-95,47.240103,-102.707559,NAD83,11159.8,9117839,0,North Dakota,Dunn,3,FALSE,FALSE,,
6c743b1a-7931-4169-934d-258573d7f0e8,10/18/2022 16:11,10/24/2022 12:40,4.24794E+13,42,479,SilverBow Resources,Fasken State 204H,27.8758398,-99.7753305,NAD83,9435.4,10710598,0,Texas,Webb,3,FALSE,FALSE,,
1b544d6b-4e66-44fa-9010-227744ebd6f1,10/24/2022 10:12,10/24/2022 13:33,5.10309E+12,5,103,Utah Gas Corporation,Dragon Trail Unit 1072,39.861996,-108.863744,NAD83,3111,101094,0,Colorado,Rio Blanco,3,TRUE,FALSE,,
fe626829-2e26-4c0a-b82c-aff6ae30f74b,10/2/2022 14:26,10/24/2022 23:05,3.40812E+13,34,81,"Ascent Resources - Utica, LLC",Atlas NW WEL JF 3H,40.247627,-80.757356,NAD83,9755,13557210,0,Ohio,Jefferson,3,FALSE,FALSE,,
11b1fc2f-0ac3-4313-b9ab-a49403f70a82,10/11/2022 0:00,10/25/2022 0:00,3.50733E+13,35,73,Ovintiv Mid-Continent Inc. ,COFFEY 1507 2H-27X,35.753822,-97.933225,NAD27,8447,25585980,0,Oklahoma,Kingfisher,3,FALSE,FALSE,,
5fdbb5f2-16b0-42ef-a545-77618f624c1e,9/24/2022 0:00,10/25/2022 0:00,3.71293E+13,37,129,Olympus Energy,Metis 5M,40.38207,-79.63787,NAD27,7916,16783005,0,Pennsylvania,Westmoreland,3,FALSE,FALSE,,
8727065a-8ea4-4696-a589-6332c2a1a982,10/10/2022 0:00,10/25/2022 0:00,4.23014E+13,42,301,Occidental Oil and Gas,AMETHYST STATE 29-0-20-17 I 82HA,31.76924225,-103.4775156,NAD27,11464,17923159,0,Texas,Loving,3,FALSE,FALSE,,
5589a97c-124c-44bd-84fc-1e9fa22dd5cb,10/15/2022 0:00,10/25/2022 0:00,4.23114E+13,42,311,"BlackBrush O & G, LLC",STS South 16H,28.3097125,-98.7115461,NAD27,11938,11646180,46791,Texas,McMullen,3,FALSE,FALSE,,
ba6dba35-ca9d-4ae0-a4b0-94075679cea9,10/25/2022 0:00,10/25/2022 0:00,4.30133E+13,43,13,"Berry Petroleum Company, LLC",Ute Tribal 21-03 INJ,40.0373988,-110.2311588,NAD83,6048,169942.5,0,Utah,Duchesne,3,FALSE,FALSE,,
3ec86b97-ed4c-4d7a-83ce-8270efe4a818,10/25/2022 0:00,10/25/2022 0:00,4.30135E+13,43,13,"Berry Petroleum Company, LLC",Ute Tribal 21-03N,40.037429,-110.230567,NAD83,6174,28880.88,0,Utah,Duchesne,3,FALSE,FALSE,,
c1585461-e251-4d68-a8f0-2a9eb5426f00,10/25/2022 0:00,10/25/2022 0:00,4.30135E+13,43,13,"Berry Petroleum Company, LLC",Ute Tribal 21-03O,40.03742,-110.2305,NAD83,6200,190314.6,0,Utah,Duchesne,3,FALSE,FALSE,,
49f87123-3a40-4540-862a-ba572b8a06e0,10/13/2022 4:00,10/25/2022 4:00,3.71152E+13,37,115,"Chesapeake Operating, Inc.",MASSO 24HC,41.6858,-76.0621,NAD83,7250,23046676,0,Pennsylvania,Susquehanna,3,FALSE,FALSE,,
22d3e399-423b-4684-9e50-057cb9dfa5f1,10/25/2022 5:00,10/25/2022 5:00,3.50292E+13,35,29,Command,Donna 1-20,34.62618528,-96.28087881,NAD27,7425,93994,17220,Oklahoma,Coal,3,FALSE,FALSE,,
ff7bf6da-0217-4221-9ce5-5e4268686257,10/24/2022 5:00,10/25/2022 5:00,3.50733E+13,35,73,"Hinkle Oil & Gas, Inc.",LSEOU 94-3HO,35.91303,-97.777511,NAD83,6355,2307900,0,Oklahoma,Kingfisher,3,FALSE,FALSE,,
f2e73a5f-c175-4b8c-923e-be1f4b1a065d,10/3/2022 5:00,10/25/2022 5:00,4.20035E+13,42,3,COG Operating LLC,MABEE DDA F40 3412SH,32.2336,-102.245068,NAD27,9289,0,0,Texas,Andrews,3,FALSE,FALSE,,
35105845-252d-4ec1-8ba1-125d9dc16ab2,10/3/2022 5:00,10/25/2022 5:00,4.20035E+13,42,3,COG Operating LLC,MABEE DDAA F39 3411BH 3411BH,32.2335,-102.2500001,NAD27,9939,0,0,Texas,Andrews,3,FALSE,FALSE,,
890bf0b2-280f-4fd1-85be-6a9dc8d203a8,10/3/2022 5:00,10/25/2022 5:00,4.20035E+13,42,3,COG Operating LLC,MABEE DDA F41 3412MH 3412MH,32.2335,-102.2451,NAD27,8739,0,0,Texas,Andrews,3,FALSE,FALSE,,
40fb58b8-10ab-459a-b5f9-7f64b6b57640,10/3/2022 5:00,10/25/2022 5:00,4.20035E+13,42,3,COG Operating LLC,MABEE DDA F42 3901AH,32.2337,-102.2458,NAD27,9659,0,0,Texas,Andrews,3,FALSE,FALSE,,
e031aea7-c260-4d51-b277-ea7af3d0a694,10/3/2022 5:00,10/25/2022 5:00,4.20035E+13,42,3,COG Operating LLC,MABEE DDA F43 3901LH 3901LH,32.233543,-102.245317,NAD27,9407,0,0,Texas,Andrews,3,FALSE,FALSE,,
91d37fd6-9c23-430e-9c03-6177196d0d26,10/3/2022 5:00,10/25/2022 5:00,4.20035E+13,42,3,COG Operating LLC,MABEE DDA F44 3902BH 3902BH,32.233437,-102.245284,NAD27,9919,0,0,Texas,Andrews,3,FALSE,FALSE,,
bd31afe0-0ba7-4420-b502-598a616de41b,10/6/2022 5:00,10/25/2022 5:00,4.23014E+13,42,301,COG Operating LLC,UNIVERSITY 20 PW UNIT 3103H,31.6658,-103.3548,NAD27,21888,0,0,Texas,Loving,3,FALSE,FALSE,,
982283de-d7ec-44d6-a036-19a42410acf4,10/11/2022 5:00,10/25/2022 5:00,4.23014E+13,42,301,COG Operating LLC,UNIVERSITY 20 PW UNIT 4202H LOVING 4202,31.6527,-103.3369,NAD27,20330,0,0,Texas,Loving,3,FALSE,FALSE,,
4130e73e-005b-499f-a693-2403535b8ba8,10/12/2022 5:00,10/25/2022 5:00,4.23014E+13,42,301,COG Operating LLC,UNIVERSITY 20 PW UNIT 4201H LOVING 4201H,31.6527,-103.337001,NAD27,11730,0,0,Texas,Loving,3,FALSE,FALSE,,
9c5c708a-5763-4978-9213-7b30176e6ce4,10/25/2022 5:00,10/25/2022 5:00,4.24974E+13,42,497,BKV Corporation,Turnage-Belue 1H,32.999748,-97.543055,NAD27,6989,1702406,0,Texas,Wise,3,FALSE,FALSE,,
ce0325a3-4225-42e9-9e54-997ef95b311d,10/5/2022 5:00,10/25/2022 5:00,4.25073E+13,42,507,"Buffco Production,Inc",STCH-Johnson #2H,28.756522,-99.557601,NAD27,6605,42786492,0,Texas,Zavala,3,FALSE,FALSE,,
2cabfe37-8718-4b54-9ce6-9f2531145ce7,10/25/2022 10:51,10/25/2022 12:17,4.21033E+13,42,103,"Ring Energy, Inc.",Mcknight MB 199,31.559295,-102.679001,NAD83,4789,218991,13731,Texas,Crane,3,FALSE,FALSE,,
3aa7872d-75f4-4482-90c4-4dda6b773faa,10/25/2022 13:53,10/25/2022 15:15,5.1031E+12,5,103,Utah Gas Corporation,West Dragon Trail Unit 4021,39.874326,-108.876162,NAD83,3130,79254,0,Colorado,Rio Blanco,3,TRUE,FALSE,,
9c1a50da-2d26-444e-9fc9-81b910814963,9/26/2022 12:50,10/25/2022 22:50,4.23834E+13,42,383,"RP Operating, LLC ",Habanero A 205-198 3H,31.219234,-101.376869,NAD27,7391,35416324,1200914,Texas,Reagan,3,FALSE,FALSE,,
4cf439c5-a0c1-4ef6-98c3-a5da0e79f598,10/15/2022 0:00,10/26/2022 0:00,3.00155E+13,30,15,Occidental Oil and Gas,ARKENSTONE 31 FED COM 10H,32.26777931,-103.8104322,NAD27,11471,19329324,0,New Mexico,Eddy,3,TRUE,FALSE,,
9693f0cd-4fdc-4d54-abe5-53b82ec3f4d0,10/15/2022 0:00,10/26/2022 0:00,3.00155E+13,30,15,Occidental Oil and Gas,ARKENSTONE 31 FEDERAL COM 5H,32.26777946,-103.810668,NAD27,11389,12964014,0,New Mexico,Eddy,3,TRUE,FALSE,,
9fae2d0e-5159-45b4-9e2e-a4dd10f52be8,10/13/2022 0:00,10/26/2022 0:00,3.00255E+13,30,25,"EOG Resources, Inc.",CONVOY 28 STATE COM #101H,32.194345,-103.570273,NAD83,9488.81,17699388,0,New Mexico,Lea,3,FALSE,FALSE,,
38c40736-722f-47ae-b91e-1d6814670dcb,10/12/2022 0:00,10/26/2022 0:00,3.00255E+13,30,25,"EOG Resources, Inc.",CONVOY 28 STATE COM #201H,32.194327,-103.570101,NAD83,9733.11,18959724,0,New Mexico,Lea,3,FALSE,FALSE,,
121c1d94-d860-4bc1-9291-f6ff64039502,10/13/2022 0:00,10/26/2022 0:00,3.00255E+13,30,25,"EOG Resources, Inc.",CONVOY 28 STATE COM #202H,32.194345,-103.5701442,NAD83,9881.57,20062140,0,New Mexico,Lea,3,FALSE,FALSE,,
cb69264f-00ea-4648-9124-1433b2d65ab7,10/12/2022 0:00,10/26/2022 0:00,3.00255E+13,30,25,"EOG Resources, Inc.",CONVOY 28 STATE COM #502H,32.194345,-103.5702084,NAD83,10908.81,16021152,0,New Mexico,Lea,3,FALSE,FALSE,,
0c04226f-9952-4caa-9a5d-825c0f20bba8,10/22/2022 0:00,10/26/2022 0:00,3.40592E+13,34,59,"Ascent Resources - Utica, LLC",Black Racer S LND GR 2H,40.094115,-81.284543,NAD83,7758,7495740,0,Ohio,Guernsey,3,FALSE,FALSE,,
ad5fdfdb-938d-4dcc-a456-804fc6265167,10/21/2022 0:00,10/26/2022 0:00,3.40592E+13,34,59,"Ascent Resources - Utica, LLC",Black Racer S LND GR 4H,40.094097,-81.284476,NAD83,7747,8087058,0,Ohio,Guernsey,3,FALSE,FALSE,,
c00dd8e1-ab6b-4e7e-843e-39169dbd6f7f,10/14/2022 0:00,10/26/2022 0:00,4.22554E+13,42,255,"EOG Resources, Inc.",PARKER UNIT #107H,28.9844916,-97.8917334,NAD83,10645.35,12110868,0,Texas,Karnes,3,FALSE,FALSE,,
b20d14fb-b9c2-4a55-a001-0f0fa8a94b01,10/16/2022 0:00,10/26/2022 0:00,4.23174E+13,42,317,Chevron USA Inc.,VLT COLT UNIT 0081WA,32.16933,-101.739033,NAD27,8407,26375286,0,Texas,Martin,3,FALSE,FALSE,,
59abd808-ed1d-46d6-b083-1c6ae3993478,10/16/2022 0:00,10/26/2022 0:00,4.23174E+13,42,317,Chevron USA Inc.,VLT COLT UNIT 0082WA,32.169345,-101.738971,NAD27,8405,26587722,0,Texas,Martin,3,FALSE,FALSE,,
dc50872b-714e-44eb-b925-49daf13a9102,10/6/2022 0:00,10/26/2022 0:00,4.23295E+13,42,329,Pioneer Natural Resources,Willis Berman NW33A 1H,31.9058965,-101.9589527,NAD27,8382,15446076,0,Texas,Midland,3,FALSE,FALSE,,
103b92be-7697-4616-92d7-a4beef5519a6,10/6/2022 0:00,10/26/2022 0:00,4.23295E+13,42,329,Pioneer Natural Resources,Willis Berman NW33E 5H,31.905983,-101.9585808,NAD27,8360,15563842,0,Texas,Midland,3,FALSE,FALSE,,
25655943-1b36-441d-89eb-90b475b84418,9/14/2022 0:00,10/26/2022 0:00,4.23894E+13,42,389,Tall City Operations III LLC,Otter 139-138 Unit E #3H,31.165231,-103.6617246,NAD83,9973,11526606,0,Texas,Reeves,3,FALSE,FALSE,,
2f6579cf-fd31-4a11-8201-27849f774d85,10/26/2022 0:00,10/26/2022 0:00,4.24953E+13,42,495,Champion Lone Star Operating,CLS WALTON 1201NW,31.916381,-103.146906,NAD83,3525,51198,0,Texas,Winkler,3,FALSE,FALSE,,
06bc6864-5346-4f41-bdb3-5f42d143f533,10/26/2022 0:00,10/26/2022 0:00,4.24953E+13,42,495,Champion Lone Star Operating,CLS Walton 1001NW,31.917531,-103.142457,NAD83,3543,13398,0,Texas,Winkler,3,FALSE,FALSE,,
03d6d03f-4b11-4025-824e-fe240f33b415,10/26/2022 0:00,10/26/2022 0:00,4.30133E+13,43,13,"Berry Petroleum Company, LLC",Ute Tribal 30-14 INJ,40.0122132,-110.266652,NAD83,5742,146109.18,0,Utah,Duchesne,3,FALSE,FALSE,,
b9163729-04e1-4b05-8476-b230115bae8d,10/26/2022 0:00,10/26/2022 0:00,4.30135E+13,43,13,"Berry Petroleum Company, LLC",Ute Tribal 30-14M,40.01226,-110.265943,NAD83,6132,124933.2,0,Utah,Duchesne,3,FALSE,FALSE,,
b5a48cce-6a70-4795-b005-115eedd9a127,10/12/2022 6:00,10/26/2022 0:58,4.23894E+13,42,389,"Forge Energy, LLC",Duiker State TB1 11H,31.156535,-103.290232,NAD27,10034,21540240,1063110,Texas,Reeves,3,FALSE,FALSE,,
892b026b-f68a-40bd-8894-4094f8602273,10/12/2022 6:00,10/26/2022 0:58,4.23894E+13,42,389,"Forge Energy, LLC",Duiker State SB1 21H,31.156542,-103.288281,NAD27,9425,21004011,1060647,Texas,Reeves,3,FALSE,FALSE,,
1c2c4ea9-115b-49b9-8cfa-ef5581214fcb,9/26/2022 17:40,10/26/2022 2:00,4.23834E+13,42,383,"RP Operating, LLC ",Habanero B 205 198 4H,31.219191,-101.373355,NAD27,7647,34902944,1196476,Texas,Reagan,3,FALSE,FALSE,,
1bf6744a-b624-4f4a-b5df-220a7e2f546f,10/13/2022 5:00,10/26/2022 5:00,3.50992E+13,35,99,"Continental Resources, Inc",Balvenie 1-6-31-30XHW,34.499236,-97.243949,NAD27,12805,25291224,0,Oklahoma,Murray,3,FALSE,FALSE,,
a3470faa-9079-4693-8fd0-666ec2efd231,10/11/2022 5:00,10/26/2022 5:00,4.23014E+13,42,301,COG Operating LLC,UNIVERSITY 20 PW UNIT 4203H LOVING 4203,31.6527,-103.3368,NAD27,11770,17574485,0,Texas,Loving,3,TRUE,FALSE,,
04d1fd53-5941-44bd-a7e0-a0dc990e08f9,10/14/2022 5:00,10/26/2022 5:00,4.23114E+13,42,311,"BlackBrush O & G, LLC",STS South 14H,28.3097127,-98.7116704,NAD27,11621,14115108,58072,Texas,McMullen,3,FALSE,FALSE,,
6ddaaabc-9dba-4ec2-907b-dfcb6df30078,9/25/2022 5:00,10/26/2022 5:00,4.23894E+13,42,389,Tall City Operations III LLC,Otter 139-138 Unit E #22H,31.165231,-103.6617247,NAD83,10494,10590552,0,Texas,Reeves,3,FALSE,FALSE,,
8c7bd826-4159-4d87-b904-900cf1c01db4,10/25/2022 5:00,10/26/2022 5:00,4.24393E+13,42,439,BKV Corporation,Bonds Ranch H 1H,32.934045,-97.436538,NAD83,7153,3726578,0,Texas,Tarrant,3,FALSE,FALSE,,
585e8ae8-b39c-40ab-8049-77c8a15d2ff6,10/6/2022 5:00,10/26/2022 5:00,4.25073E+13,42,507,"Buffco Production,Inc",STCH-Johnson #1H,28.756522,-99.557679,NAD27,6608,41088726,0,Texas,Zavala,3,FALSE,FALSE,,
f19c008d-93f6-4411-8cd5-83e984576e5e,10/19/2022 5:00,10/26/2022 5:00,4.90095E+13,49,9,Devon Energy Production Company L. P.,SSU Rankin Fed 16-093668-5XNH,43.088134,-105.0162,NAD83,9366,19516603,0,Wyoming,Converse,3,FALSE,FALSE,,
25fca4b1-003e-49e3-8f66-f1297bbabf0c,9/26/2022 22:35,10/26/2022 5:11,4.23834E+13,42,383,"RP Operating, LLC ",Habanero B 205 198 5H,31.219153,-101.370191,NAD27,7394,35101980,1201014,Texas,Reagan,3,FALSE,FALSE,,
4d0f706a-d173-4f90-82ac-8ff016b59e9d,8/23/2022 10:01,10/26/2022 8:00,4.22274E+13,42,227,"Bayswater Exploration & Production, LLC",Side Hustle 27-22-15 H 1W,32.341064,-101.244134,NAD83,8500,52508418,0,Texas,Howard,3,FALSE,FALSE,,
8069bd91-64ba-4a3d-bc5c-62de1dce33ea,10/26/2022 8:21,10/26/2022 10:31,4.21034E+13,42,103,Slant Operating ,JB Tubb AC 1 313,31.494305,-102.60741,NAD83,4723,182129,16237,Texas,Crane,3,FALSE,FALSE,,
c7f8b810-9755-4f12-8973-8651c747032a,10/13/2022 2:12,10/26/2022 13:35,4.90093E+13,49,9,Anschutz Exploration Corporation,Roper Fed 3671-15-3-2E NH,43.100184,-105.364236,NAD83,11046,7028616,0,Wyoming,Converse,3,TRUE,FALSE,,
f4ae487c-10c0-4749-953e-94fdbf916de6,10/26/2022 13:30,10/26/2022 14:43,5.1031E+12,5,103,Utah Gas Corporation,Dragon Trail Unit 1150,39.861369,-108.856803,NAD83,2979,75852,0,Colorado,Rio Blanco,3,TRUE,FALSE,,
8f681b82-4ee8-4361-b866-d258e9a937ba,10/9/2022 3:48,10/26/2022 14:58,4.21354E+13,42,135,Firebird Energy,Sallie B 1213 101H,31.7930336,-102.302574,NAD27,9088,29236914,0,Texas,Ector,3,FALSE,FALSE,,
98b88ee0-90bb-4dbf-92f7-c852fc4ef621,8/23/2022 6:39,10/26/2022 16:29,4.22274E+13,42,227,"Bayswater Exploration & Production, LLC",Sidekick 27-22-15 H 2W,32.341011,-101.244118,NAD83,8500,31016429,0,Texas,Howard,3,FALSE,FALSE,,
95a1c254-8368-4826-a9ab-d2b1de1dc3b7,10/13/2022 9:00,10/26/2022 19:30,4.90093E+13,49,9,Anschutz Exploration Corporation,Roper Fed 3671-15-3-1E NH,43.100131,-105.36422,NAD83,11046,24599022,0,Wyoming,Converse,3,TRUE,FALSE,,
13785342-cd98-42c7-9018-9359d7ed0c0f,10/26/2022 8:35,10/26/2022 21:40,4.21034E+13,42,103,"Ring Energy, Inc.",Mcknight MB 212,31.546923,-102.683064,NAD83,4557,1310582,72058,Texas,Crane,3,FALSE,FALSE,,
5477a97f-9b97-4005-a9fe-fc17a060ddd9,10/9/2022 0:57,10/26/2022 22:55,4.21354E+13,42,135,Firebird Energy,Sallie B 1213 201H,31.79311,-102.302589,NAD27,8910,30548406,0,Texas,Ector,3,FALSE,FALSE,,
b9b96247-8636-4393-a42a-04ea89ddf928,10/27/2022 0:00,10/27/2022 0:00,1.50812E+13,15,81,Merit Energy Company LLC,William 1-23,37.5985214,-100.8912064,NAD27,5308,65898,0,Kansas,Haskell,3,FALSE,FALSE,,
c74907dc-ad03-478c-892f-be27bc70216b,10/17/2022 0:00,10/27/2022 0:00,3.50152E+13,35,15,"Peachridge Energy Operating, LLC.",Dove 24-5H,35.246373,-98.30715,NAD27,10118,10241868,,Oklahoma,Caddo,3,FALSE,FALSE,,
68d6aead-8c4c-46b6-9b97-675fa724c0ce,10/15/2022 0:00,10/27/2022 0:00,4.22554E+13,42,255,"EOG Resources, Inc.",PARKER UNIT #12H,28.9841156,-97.8914632,NAD83,10836.04,11045874,0,Texas,Karnes,3,FALSE,FALSE,,
57033ed9-7297-4c57-a02e-10b6cf1c3795,10/14/2022 0:00,10/27/2022 0:00,4.22554E+13,42,255,"EOG Resources, Inc.",PARKER UNIT #15H,28.9843038,-97.8915988,NAD83,10885.73,10354134,0,Texas,Karnes,3,FALSE,FALSE,,
82fd6c33-4c9b-4923-842f-e3b65bfd68eb,10/15/2022 0:00,10/27/2022 0:00,4.22554E+13,42,255,"EOG Resources, Inc.",PARKER UNIT #104H,28.984367,-97.891644,NAD83,10642.67,12511002,0,Texas,Karnes,3,FALSE,FALSE,,
0f1cee16-107b-4329-8bb6-f4b42b006c2e,10/14/2022 0:00,10/27/2022 0:00,4.22554E+13,42,255,"EOG Resources, Inc.",PARKER UNIT #105H,28.984429,-97.891689,NAD83,10581.63,12249846,0,Texas,Karnes,3,FALSE,FALSE,,
6632ffec-e5b6-4e4f-a828-61584ec6ee4e,10/27/2022 0:00,10/27/2022 0:00,4.23413E+13,42,341,Scout Energy Partners,Rorex 232A,35.8639194,-101.8828028,NAD27,3400,69048,0,Texas,Moore,3,FALSE,FALSE,,
b76c7cc4-f1c1-4711-9168-ba819f41d070,10/16/2022 0:00,10/27/2022 0:00,4.24794E+13,42,479,Lewis Energy Group,HAMILTON NO. 34H,27.95851019,-99.56790945,WGS84,10456,,,Texas,Webb,3,FALSE,FALSE,,
7f216abc-1178-46fd-98c6-621ce5b06b64,10/26/2022 0:00,10/27/2022 0:00,4.30135E+13,43,13,"Berry Petroleum Company, LLC",Ute Tribal 30-14N,40.012206,-110.265955,NAD83,6079,141944.04,0,Utah,Duchesne,3,FALSE,FALSE,,
ed8e0eee-a945-44cf-9861-735552565272,10/27/2022 0:00,10/27/2022 0:00,4.30135E+13,43,13,"Berry Petroleum Company, LLC",Ute Tribal 18-10G,40.044596,-110.263181,NAD83,5384,77300.58,0,Utah,Duchesne,3,FALSE,FALSE,,
22e88e89-4b72-4dbc-b5c4-c160ea76cb80,10/27/2022 0:00,10/27/2022 0:00,4.30135E+13,43,13,"Berry Petroleum Company, LLC",Ute Tribal 18-10H,40.044659,-110.263145,NAD83,5404,82789.56,0,Utah,Duchesne,3,FALSE,FALSE,,
4269428e-bed0-4e77-a17c-57e9a698c045,10/9/2022 19:44,10/27/2022 2:41,3.00155E+13,30,15,XTO Energy/ExxonMobil,REMUDA NORTH 25 STATE 701H,32.275098,-103.940535,NAD83,8934.85,15440846,0,New Mexico,Eddy,3,FALSE,FALSE,,
1ea30f1a-6745-40a0-9469-9d838d7692ef,10/15/2022 5:00,10/27/2022 5:00,5.05707E+12,5,57,D90 Energy LLC,SU SPICER 0680 4-5H17,40.52955052,-106.4038193,NAD27,7245,18866412,48608,Colorado,Jackson,3,TRUE,FALSE,,
cf38f1d9-6f44-4936-8d66-5406db25cfe8,9/22/2022 5:00,10/27/2022 5:00,1.70852E+13,17,85,"GEP HAYNESVILLE II, LLC",Salamndr 26-23-14HC 001,31.81721834,-93.57274481,NAD83,12107,49130172,0,Louisiana,Sabine,3,FALSE,FALSE,,
2d995283-9581-4d3e-b192-98129b6120a0,10/27/2022 5:00,10/27/2022 5:00,3.50191E+13,35,19,"Kodiak Oil & Gas, Inc.",AWU 3-1,34.251827,-97.38393,NAD83,1026,13797,0,Oklahoma,Carter,3,FALSE,FALSE,,
4ca3afb5-28b4-4c77-8e32-d8c8f2191315,10/27/2022 5:00,10/27/2022 5:00,3.50193E+13,35,19,"Kodiak Oil & Gas, Inc.",Braker 164,34.408461,-97.421673,NAD27,1805,18668,0,Oklahoma,Carter,3,FALSE,FALSE,,
74bb5f6e-2eed-485d-9b4f-fc5ecb2878d4,10/27/2022 5:00,10/27/2022 5:00,3.50193E+13,35,19,"Kodiak Oil & Gas, Inc.",AWU 27,34.253218,-97.386567,NAD83,1100,11508,0,Oklahoma,Carter,3,FALSE,FALSE,,
abae100e-df5a-4d7a-b909-9966e4805d55,10/27/2022 5:00,10/27/2022 5:00,3.50193E+13,35,19,"Kodiak Oil & Gas, Inc.",AWU 35,34.255924,-97.384691,NAD83,1017,10940,0,Oklahoma,Carter,3,FALSE,FALSE,,
d7057137-47ba-4c05-b4cf-06effc7a07dc,10/24/2022 5:00,10/27/2022 5:00,3.50733E+13,35,73,"Hinkle Oil & Gas, Inc.",LNU 78-3HO,35.985003,-97.786062,NAD83,6368,2454564,0,Oklahoma,Kingfisher,3,FALSE,FALSE,,
3a83b524-51ad-424d-adf0-1dc3e596020f,9/19/2022 5:00,10/27/2022 5:00,4.23654E+13,42,365,Comstock Oil & Gas,Sparks McJimsey B #2H,32.33252086,-94.25052578,NAD27,11043,36384746,0,Texas,Panola,3,FALSE,FALSE,,
eaa698dd-8fad-4f52-8b28-8b1ce27b38ec,9/12/2022 5:00,10/27/2022 5:00,4.23654E+13,42,365,Comstock Oil & Gas,Sparks MLT #1H,32.33253585,-94.25065407,NAD27,11015,47753370,0,Texas,Panola,3,FALSE,FALSE,,
ab9cfa28-f62f-414c-a3c3-56e06d02b23b,10/16/2022 5:00,10/27/2022 5:00,4.24794E+13,42,479,Lewis Energy Group,HAMILTON NO. 32H,27.95555461,-99.57369105,WGS84,10422,0,,Texas,Webb,3,FALSE,FALSE,,
99463560-ccb5-4c07-9537-8abdc731208b,10/16/2022 5:00,10/27/2022 5:00,4.24794E+13,42,479,Lewis Energy Group,HAMILTON NO. 33H,27.95851001,-99.56795579,WGS84,10437,,,Texas,Webb,3,FALSE,FALSE,,
d4237c70-9aad-4020-ad4a-c68c04e3ec76,10/27/2022 5:00,10/27/2022 5:00,4.24974E+13,42,497,BKV Corporation,CJA Harrison 6H,33.059785,-97.572467,NAD27,6882,1463671,0,Texas,Wise,3,FALSE,FALSE,,
b366efcf-bb66-4c10-8625-d38305118360,10/13/2022 6:00,10/27/2022 6:00,5.12349E+12,5,123,"Noble Energy, Inc.",GUTTERSEN D12-725,40.260828,-104.491721,NAD83,6726,24917482,0,Colorado,Weld,3,FALSE,FALSE,,
bc7c39d1-2654-4dc2-8e35-1f0e84a4055f,10/12/2022 6:00,10/27/2022 6:00,5.12349E+12,5,123,"Noble Energy, Inc.",GUTTERSEN D12-745,40.260831,-104.491885,NAD83,6728,24723225,0,Colorado,Weld,3,FALSE,FALSE,,
cacfc183-1f61-417b-bf3b-a6bb25e591ca,10/13/2022 6:00,10/27/2022 6:00,5.12349E+12,5,123,"Noble Energy, Inc.",GUTTERSEN D12-735,40.260822,-104.491805,NAD83,6738,24779777,0,Colorado,Weld,3,FALSE,FALSE,,
37b4ef18-efc4-4fba-ad11-b4dce2f97e9b,10/12/2022 6:00,10/27/2022 6:00,5.12349E+12,5,123,"Noble Energy, Inc.",GUTTERSEN D12-715,40.260831,-104.491642,NAD83,6722,24805424,0,Colorado,Weld,3,FALSE,FALSE,,
6885fc95-4a79-4672-a618-861903199785,10/10/2022 5:10,10/27/2022 6:26,3.00155E+13,30,15,XTO Energy/ExxonMobil,REMUDA NORTH 25 STATE 702H,32.275099,-103.940243,NAD83,9176.15,14835862,0,New Mexico,Eddy,3,FALSE,FALSE,,
b6ed1e7c-ab25-404b-84c8-5952ed0df546,10/10/2022 14:51,10/27/2022 8:21,3.00155E+13,30,15,XTO Energy/ExxonMobil,REMUDA NORTH 25 STATE 703H,32.275099,-103.940146,NAD83,8982.85,14144092,0,New Mexico,Eddy,3,FALSE,FALSE,,
e3a2c4ce-346a-46b0-8e12-48b9fdeada55,10/27/2022 15:12,10/27/2022 16:15,5.1031E+12,5,103,Utah Gas Corporation,West Dragon Trail Unit 4025,39.879338,-108.891894,NAD83,3154,63588,0,Colorado,Rio Blanco,3,TRUE,FALSE,,
1fb14567-e1d0-4987-9a52-482a094b89de,9/30/2022 18:18,10/27/2022 16:35,3.00255E+13,30,25,COG Operating LLC,Green Beret Federal Com 602H,32.1219,-103.3876,NAD83,12617,15028873,0,New Mexico,Lea,3,TRUE,FALSE,,
8f93a157-65c4-41b6-9d06-0df303473a92,10/28/2022 0:00,10/28/2022 0:00,1.51892E+13,15,189,Scout Energy Partners,Mason 2-1R,37.374504,-101.408854,NAD27,2669,53256,0,Kansas,Stevens,3,FALSE,FALSE,,
d007b2cd-e66c-4478-a051-0c364c6b4d25,10/15/2022 0:00,10/28/2022 0:00,4.22554E+13,42,255,"EOG Resources, Inc.",PARKER UNIT #13H,28.984179,-97.891509,NAD83,10880.96,11164986,0,Texas,Karnes,3,FALSE,FALSE,,
6ccb0711-4bd0-4b9c-bbc0-87b68b030378,10/14/2022 0:00,10/28/2022 0:00,4.22554E+13,42,255,"EOG Resources, Inc.",PARKER UNIT #14H,28.984241,-97.891554,NAD83,10827.67,10712604,0,Texas,Karnes,3,FALSE,FALSE,,
aebd6b22-a45a-4144-8ca9-968018f05223,10/23/2022 0:00,10/28/2022 0:00,4.22954E+13,42,295,MEWBOURNE OIL COMPANY,Trosper-Valdo 361-432 A #C001MD,36.158322,-100.163542,NAD27,8300,11929668,0,Texas,Lipscomb,3,FALSE,FALSE,,
aafbb49b-3dfb-4d41-bca0-3e2ab00481e3,10/14/2022 0:00,10/28/2022 0:00,4.23014E+13,42,301,Occidental Oil and Gas,AMETHYST STATE 29-0-20-17 B 12HA,31.76919209,-103.4776994,NAD27,11699,23492860,0,Texas,Loving,3,FALSE,FALSE,,
cef742ea-e826-4922-b727-3235620e2bc1,10/11/2022 0:00,10/28/2022 0:00,4.23014E+13,42,301,Occidental Oil and Gas,AMETHYST STATE 29-0-20-17 F 22HA,31.76921736,-103.4776076,NAD27,11942,17674999,0,Texas,Loving,3,FALSE,FALSE,,
85055404-c45d-474f-8678-1b70038e57a6,10/28/2022 0:00,10/28/2022 0:00,4.30133E+13,43,13,"Berry Petroleum Company, LLC",Ute Tribal 18-10,40.0446745,-110.2638302,NAD83,5687,143886.54,0,Utah,Duchesne,3,FALSE,FALSE,,
cd6283f3-cbc3-44b8-9aed-aaaa30924a75,10/28/2022 0:00,10/28/2022 0:00,4.30135E+13,43,13,"Berry Petroleum Company, LLC",Ute Tribal 18-14O,40.041058,-110.267791,NAD83,5782,135359.7,0,Utah,Duchesne,3,FALSE,FALSE,,
cba8cb21-35f8-4526-9124-5262b68bd48a,10/3/2022 4:00,10/28/2022 4:00,3.70072E+13,37,7,Range Resources Corporation,McMichael Peter 11388 14H,40.54278417,-80.35469056,NAD83,5631,18996448,0,Pennsylvania,Beaver,3,FALSE,FALSE,,
d7251e7c-f39c-4d7f-b327-8f492b6ce27b,10/3/2022 4:00,10/28/2022 4:00,3.70072E+13,37,7,Range Resources Corporation,McMichael Peter 11388 15H,40.53145,-80.35324,NAD83,5629,18828750,0,Pennsylvania,Beaver,3,FALSE,FALSE,,
88964887-9114-40ec-bafc-7d4ddd3f24ca,10/3/2022 4:00,10/28/2022 4:00,3.70072E+13,37,7,Range Resources Corporation,McMichael Peter 11388 16H,40.53149,-80.35319,NAD83,5631,16666374,0,Pennsylvania,Beaver,3,FALSE,FALSE,,
2879efa1-b5e7-4c87-ad22-73f530ce5c11,10/2/2022 5:00,10/28/2022 5:00,5.05707E+12,5,57,D90 Energy LLC,SU SPICER 0680 3-5H17,40.5295,-106.4038,NAD27,7127,20493602,53172,Colorado,Jackson,3,TRUE,FALSE,,
f7933181-a340-4dac-852a-e3dd682590d2,10/1/2022 5:00,10/28/2022 5:00,3.00255E+13,30,25,COG Operating LLC,Green Beret Federal Com 801H,32.1219,-103.3877,NAD83,12374,18503730,0,New Mexico,Lea,3,TRUE,FALSE,,
6c1cdaaf-399f-44c4-b2e7-d9e56143417e,10/15/2022 5:00,10/28/2022 5:00,3.00255E+13,30,25,Kaiser-Francis Oil Company,Bell Lake North 216H,32.3353323,-103.4934923,NAD83,10375.8,17148196,0,New Mexico,Lea,3,TRUE,FALSE,,
3bd6f04a-c730-44a9-873b-6ba0b151dee9,10/17/2022 5:00,10/28/2022 5:00,3.31051E+13,33,105,Hess Corporation,GO-ASLAKSON-156-97-2734H-3,48.31442,-103.1429,NAD83,10494.59,13834422,0,North Dakota,Williams,3,FALSE,FALSE,,
09884c72-4f7e-4eeb-9889-e0d6a077a0fd,10/17/2022 5:00,10/28/2022 5:00,3.31051E+13,33,105,Hess Corporation,GO-ASLAKSON-156-97-2734H-2,48.31442,-103.143036,NAD83,10494.76,13729464,0,North Dakota,Williams,3,FALSE,FALSE,,
4c09ef3a-8c82-490c-b753-983f095ba013,10/14/2022 5:00,10/28/2022 5:00,4.21234E+13,42,123,Devon Energy Production Company L. P.,BIG OAK B 3H 3H,29.2745,-97.3028,NAD27,12915,10764332,0,Texas,DeWitt,3,FALSE,FALSE,,
793c4471-5c20-4ebe-9282-516a2a055e16,10/28/2022 5:00,10/28/2022 5:00,4.24974E+13,42,497,BKV Corporation,Dale Hoyl 5H,33.161039,-97.476885,NAD27,7526,1525348,0,Texas,Wise,3,FALSE,FALSE,,
380924ad-3e43-484b-9436-34b30baadaf7,9/12/2022 6:00,10/28/2022 6:00,5.00507E+12,5,5,Crestone Peak Resources,EASTERN HILLS 04-65 17-18 03FH,39.699987,-104.680888,NAD83,8116,36060788,0,Colorado,Arapahoe,3,FALSE,FALSE,,
9cbf4a26-80b1-4f4d-9fce-cb5a759227f0,10/12/2022 14:40,10/28/2022 16:53,4.24794E+13,42,479,SM Energy,Briscoe C 2328H,28.106419,-99.941245,NAD27,6675.98,13536936,0,Texas,Webb,3,FALSE,FALSE,,
1805a0cb-4374-4ef1-b3a5-ef160ad5efca,10/26/2022 1:20,10/28/2022 17:19,3.3061E+13,33,61,Hunt Oil Company,SAUBER 1-17H,48.167329,-102.152346,NAD83,9113.15,3583018,0,North Dakota,Mountrail,3,FALSE,FALSE,,
86000a20-b0d0-4eed-85d7-281d2f030b0a,9/25/2022 7:47,10/28/2022 19:01,1.70174E+13,17,17,"Silver Hill Operating, LLC",BRYSON ET AL 4-33 HC 002-ALT,32.4006114,-94.0107593,NAD83,11215.1,30226358,0,Louisiana,Caddo,3,FALSE,FALSE,,
6f188a0d-8d8c-4f00-944b-c8b9550a63a0,10/14/2022 3:56,10/28/2022 19:55,4.24794E+13,42,479,SM Energy,Briscoe C 2319H,28.106491,-99.9412,NAD27,6516,12870186,0,Texas,Webb,3,FALSE,FALSE,,
a4b4dd0d-321e-47ea-b387-e2cfc2a46e3e,10/17/2022 6:00,10/29/2022 0:00,3.00155E+13,30,15,"Novo Oil & Gas Texas, LLC",Ovation Fed Com 1318 233H,32.299532,-104.048778,NAD27,10059,24594528,0,New Mexico,Eddy,3,TRUE,FALSE,,
bb12f83d-7e32-42b5-914f-ec02027904bd,10/18/2022 6:00,10/29/2022 0:00,3.00155E+13,30,15,"Novo Oil & Gas Texas, LLC",Ovation Fed Com 1318 234H,32.299531,-104.048649,NAD27,10119,24462774,0,New Mexico,Eddy,3,TRUE,FALSE,,
ed0cfb44-54cc-47e9-90d7-56c061ea113a,10/6/2022 0:00,10/29/2022 0:00,4.23295E+13,42,329,Pioneer Natural Resources,Willis Berman NW33B 2H,31.9059179,-101.9588598,NAD27,9189,19403520,0,Texas,Midland,3,FALSE,FALSE,,
de5ff74e-a33b-49f5-bf72-b9112d81c1b4,10/6/2022 0:00,10/29/2022 0:00,4.23295E+13,42,329,Pioneer Natural Resources,Willis Berman NW33C 3H,31.9059393,-101.9587671,NAD27,8711,17350974,0,Texas,Midland,3,FALSE,FALSE,,
3d8f2f33-de41-475c-a11c-370548f6a392,10/6/2022 0:00,10/29/2022 0:00,4.23295E+13,42,329,Pioneer Natural Resources,Willis Berman NW33D 4H,31.9059614,-101.958674,NAD27,9487,21420811,0,Texas,Midland,3,FALSE,FALSE,,
0c688a87-bcb9-4ea5-bbba-7ef237a32c62,10/6/2022 0:00,10/29/2022 0:00,4.23295E+13,42,329,Pioneer Natural Resources,Willis Berman NW33F 6H,31.9060046,-101.9584875,NAD27,9168,19546327,0,Texas,Midland,3,FALSE,FALSE,,
e54ef4d1-236d-45e3-a8f8-1f72de64f49f,10/29/2022 0:00,10/29/2022 0:00,4.30133E+13,43,13,"Berry Petroleum Company, LLC",Ute Tribal 18-14,40.0411556,-110.2687092,NAD83,5477,136536.54,0,Utah,Duchesne,3,FALSE,FALSE,,
e2cabdfb-2f24-41eb-adb6-40b45d4f6f17,10/29/2022 0:00,10/29/2022 0:00,4.30135E+13,43,13,"Berry Petroleum Company, LLC",Ute Tribal 18-14N,40.041058,-110.267896,NAD83,5749,179472.66,0,Utah,Duchesne,3,FALSE,FALSE,,
922dbf90-a24c-48cb-be95-d19ffc88683d,10/8/2022 4:00,10/29/2022 4:00,3.70192E+13,37,19,XTO Energy/ExxonMobil,Bachelder 3H,40.796142,-79.881947,NAD83,6011,21335244,0,Pennsylvania,Butler,3,FALSE,FALSE,,
0f3abaae-d703-4465-b940-33c5b8736fbd,9/22/2022 4:00,10/29/2022 4:00,3.70634E+13,37,63,"INR Operating, LLC",Anegada 1HM,40.62664,-79.3355,NAD27,7600,22133286,539831,Pennsylvania,Indiana,3,FALSE,FALSE,,
c380b60d-af15-4bf3-8a58-cc40391774ba,10/4/2022 5:00,10/29/2022 5:00,1.70153E+13,17,15,Aethon Energy Operating LLC,RED OAK 12 1 HC 1 ALT,32.4669,-93.4602,NAD27,13209,39864181,0,Louisiana,Bossier,3,FALSE,FALSE,,
0ec5f38f-a4a9-411f-ab28-87777bc321b6,10/13/2022 5:00,10/29/2022 5:00,1.70812E+13,17,81,Southwestern Energy ,Mary Long 4-9 14-10 HC#1,32.234755,-93.403199,NAD27,12344,24541650,0,Louisiana,Red River,3,FALSE,FALSE,,
dc9faabf-b99e-45d4-a89d-4210eaa495ec,10/13/2022 5:00,10/29/2022 5:00,1.70813E+13,17,81,Southwestern Energy ,Mary Long 4-9 14-10 HC#2,32.234754,-93.403101,NAD27,12379,24241476,0,Louisiana,Red River,3,FALSE,FALSE,,
929646f7-bd7c-4d8e-a499-61f19c295e25,10/2/2022 5:00,10/29/2022 5:00,3.00255E+13,30,25,COG Operating LLC,Green Beret Federal Com 501H,32.121731,-103.387419,NAD83,12617,15075980,0,New Mexico,Lea,3,TRUE,FALSE,,
4f6a2f73-6210-4e36-bab0-f68255a41974,10/3/2022 5:00,10/29/2022 5:00,3.00255E+13,30,25,COG Operating LLC,Green Beret Federal Com 702H,32.1219,-103.3879,NAD83,12812,16337517,0,New Mexico,Lea,3,TRUE,FALSE,,
d327ec3a-f2e3-4ca3-90e6-bc1863ba56e4,10/15/2022 5:00,10/29/2022 5:00,3.00255E+13,30,25,Kaiser-Francis Oil Company,Bell Lake North 415H,32.3354147,-103.4934922,NAD83,11276.3,18338428,0,New Mexico,Lea,3,TRUE,FALSE,,
4f0b0914-ab29-4aab-aff7-55dc5279af2c,10/16/2022 5:00,10/29/2022 5:00,3.00255E+13,30,25,Kaiser-Francis Oil Company,Bell Lake North 416H,32.3354972,-103.4934922,NAD83,11275.1,18265988,0,New Mexico,Lea,3,TRUE,FALSE,,
0ad9117c-6b18-4ba9-81fb-94bc838c58ff,10/17/2022 5:00,10/29/2022 5:00,3.31051E+13,33,105,Hess Corporation,GO-ASLAKSON-156-97-2734H-4,48.314419,-103.142764,NAD83,10579.36,13843032,0,North Dakota,Williams,3,FALSE,FALSE,,
c179bdb1-27df-42c8-ae85-bb873e0756b3,10/26/2022 5:00,10/29/2022 5:00,3.50292E+13,35,29,"Pablo Energy II, LLC",Freeland 3H-18,34.548157,-96.290656,NAD83,7080,6971454,17545,Oklahoma,Coal,3,FALSE,FALSE,,
a6ba2962-e299-4df6-b64b-33dcffd427d9,10/23/2022 5:00,10/29/2022 5:00,3.50933E+13,35,93,SandRidge Energy,LIAM 2015 1-36H,36.1727,-98.7545,NAD27,9220,9082572,23800,Oklahoma,Major,3,TRUE,FALSE,,
aa6055b1-2926-430e-8ec6-9e0bd7f85e12,9/23/2022 5:00,10/29/2022 5:00,4.23894E+13,42,389,Tall City Operations III LLC,Otter 139-138 Unit E #21H,31.165231,-103.6617245,NAD83,10496,14103810,0,Texas,Reeves,3,FALSE,FALSE,,
13b6d6d7-0e5d-41a6-8934-cdd9e5d40f78,9/16/2022 5:00,10/29/2022 5:00,4.23894E+13,42,389,Tall City Operations III LLC,Otter 139-138 Unit E #23H,31.165231,-103.6617244,NAD83,10542,15957396,0,Texas,Reeves,3,FALSE,FALSE,,
5ec83bf9-c958-40f6-b262-faa655c72c2e,9/21/2022 5:00,10/29/2022 5:00,4.23894E+13,42,389,Tall City Operations III LLC,Otter 139-138 Unit E #24H,31.165231,-103.6617248,NAD83,10537,17937990,0,Texas,Reeves,3,FALSE,FALSE,,
6a8a431c-0f4a-456a-929d-066d78aa4e91,10/22/2022 5:00,10/29/2022 5:00,4.23894E+13,42,389,Occidental Oil and Gas,SHIBA INU STATE 55-4-10-9 A 11H,31.60612323,-103.7157192,NAD27,10855,14972454,0,Texas,Reeves,3,FALSE,FALSE,,
2f885f99-7dd0-40fe-b439-03fb845db9f2,10/15/2022 5:00,10/29/2022 5:00,4.23894E+13,42,389,"Forge Energy, LLC",State Lyssa 49-18-7 WA6 6H,31.170488,-103.257792,NAD27,10521.812,23424673,0,Texas,Reeves,3,FALSE,FALSE,,
9a8aa254-7dbe-4cbb-980b-6a0c04c892c4,10/18/2022 6:00,10/29/2022 6:00,5.0011E+12,5,1,PDC Energy,Ocho LD 17-379HC,39.98455,-104.91403,NAD83,8045,7245102,0,Colorado,Adams,3,FALSE,FALSE,,
8f97c9c2-43d8-4098-b6d1-9517cd6569fe,10/20/2022 6:00,10/29/2022 6:00,5.0011E+12,5,1,PDC Energy,Ocho LD 17-377HC,39.98442,-104.91404,NAD83,8048,7626011,0,Colorado,Adams,3,FALSE,FALSE,,
be2c5030-efcb-4838-bd90-eb1c131ba3d5,10/18/2022 6:00,10/29/2022 6:00,5.0011E+12,5,1,PDC Energy,Ocho LD 17-377HN,39.98446,-104.91404,NAD83,7893,7811017,0,Colorado,Adams,3,FALSE,FALSE,,
3767e43a-ad6e-408b-939d-d01a391fcae6,10/18/2022 6:00,10/29/2022 6:00,5.00111E+12,5,1,PDC Energy,Ocho LD 17-378HNX,39.9845,-104.91404,NAD83,7711,7382260,0,Colorado,Adams,3,FALSE,FALSE,,
586c3df5-176e-4172-837f-c2172c1787c4,10/18/2022 6:00,10/29/2022 6:00,5.00111E+12,5,1,PDC Energy,Ocho LD 17-379HN,39.98459,-104.91404,NAD83,7840,7374088,0,Colorado,Adams,3,FALSE,FALSE,,
ac6a522c-6ffe-4564-a444-540ba223a134,10/20/2022 6:00,10/29/2022 6:00,5.12351E+12,5,123,"Bison Oil & Gas II, LLC",ROSS 08-60 18-07-08,40.6464,-104.1344,NAD83,6488,20801814,0,Colorado,Weld,3,FALSE,FALSE,,
df9fd82d-78d9-4a0e-9d3d-9e35dcddaa77,10/20/2022 6:00,10/29/2022 6:00,5.12351E+12,5,123,"Bison Oil & Gas II, LLC",ROSS 08-60 18-07-07,40.6564,-104.1345,NAD83,6438,20922755,0,Colorado,Weld,3,FALSE,FALSE,,
a02207b9-c1a1-440e-b704-a1a72a200c24,10/20/2022 6:00,10/29/2022 6:00,3.3061E+13,33,61,"Slawson Exploration Company, Inc.",Phatkat Federal 6-18-7TFH,47.975859,-102.369696,NAD83,9836,8651145.92,0,North Dakota,Mountrail,3,TRUE,FALSE,,
2af45c63-3f53-4203-9e3d-6343258e2f60,10/20/2022 6:00,10/29/2022 6:00,3.3061E+13,33,61,"Slawson Exploration Company, Inc.",Phatkat Federal 7-18-7TFH,47.975859,-102.369495,NAD83,9818,8566555.2,0,North Dakota,Mountrail,3,TRUE,FALSE,,
ed7c27a4-0c78-4e7a-b75f-40e513cff294,10/12/2022 21:06,10/29/2022 8:47,4.23295E+13,42,329,XTO Energy/ExxonMobil,Nobles 2831SH,31.97759,-102.217857,NAD83,8660.9,22799679,0,Texas,Midland,3,FALSE,FALSE,,
757f23df-6c77-4250-9eaa-ba3163f7d769,10/12/2022 11:22,10/29/2022 8:53,4.24794E+13,42,479,SM Energy,Briscoe C 2339H,28.106347,-99.941291,NAD27,6811.17,15434664,0,Texas,Webb,3,FALSE,FALSE,,
3eb52d30-0f83-457d-b594-12c2c4ed2b39,10/13/2022 1:49,10/29/2022 10:53,4.23295E+13,42,329,XTO Energy/ExxonMobil,Nobles 2832SH,31.9776344,-102.2176704,NAD83,8646.4,22154699,0,Texas,Midland,3,FALSE,FALSE,,
aac4270c-7433-4336-b9e6-b1eb9abaa080,10/9/2022 16:55,10/29/2022 11:11,1.70174E+13,17,17,BPX Operating Company (BP America Production Co.),LCV RA SU77;JETER 23-26-35 HC 001-ALT,32.3680717,-93.6722435,NAD83,11826.4,37272887,0,Louisiana,Caddo,3,FALSE,FALSE,,
69ea8d3f-9bc9-4e57-b9dd-96f54f14ccfa,10/13/2022 4:27,10/29/2022 12:38,4.23295E+13,42,329,XTO Energy/ExxonMobil,Nobles 2822SH,31.9776121,-102.2177641,NAD83,9268.85,22151571,0,Texas,Midland,3,FALSE,FALSE,,
dfdedd20-f334-43d9-941a-7e6b2d7147ab,10/6/2022 15:50,10/29/2022 13:45,1.70174E+13,17,17,BPX Operating Company (BP America Production Co.),LCV RA SU77;JETER 23-26-35 HC 002-ALT,32.3680374,-93.6721978,NAD83,11751.4,45067819,0,Louisiana,Caddo,3,FALSE,FALSE,,
9dbbe3ca-7edf-4160-8b99-73d1a085aeb4,10/16/2022 4:27,10/29/2022 16:24,3.50173E+13,35,17,"Camino Natural Resources, LLC",Little Sahara 1107 26-23-3WXH,35.39279046,-97.91284187,NAD27,10212,20391042,0,Oklahoma,Canadian,3,FALSE,FALSE,,
9935606f-1144-43f0-a5e1-feac14486512,10/17/2022 9:45,10/29/2022 23:58,3.50173E+13,35,17,"Camino Natural Resources, LLC",Little Sahara 1107 26-23-2MXH,35.39279049,-97.91294251,NAD27,10180,19592412,0,Oklahoma,Canadian,3,FALSE,FALSE,,
2fb63bbd-55aa-4449-a16c-61937ee44b74,9/23/2022 0:00,10/30/2022 0:00,3.71293E+13,37,129,Olympus Energy,Metis 1M,40.38208,-79.63791,NAD27,8102,26429922,0,Pennsylvania,Westmoreland,3,FALSE,FALSE,,
cc120748-cfd9-4faa-be12-b11809f5ed16,9/23/2022 0:00,10/30/2022 0:00,3.71293E+13,37,129,Olympus Energy,Metis 3M,40.3821,-79.63791,NAD27,8073,21270100,0,Pennsylvania,Westmoreland,3,FALSE,FALSE,,
57882eec-471c-47da-ba84-0dec26510b10,8/27/2022 0:00,10/30/2022 0:00,4.23174E+13,42,317,XTO Energy/ExxonMobil,Sand Storm Unit 1 0802 0802BH,32.3083,-101.8031,NAD83,8824,31999338,0,Texas,Martin,3,FALSE,FALSE,,
5e9420d0-f2ce-4746-85bc-54c73f7fb021,8/27/2022 0:00,10/30/2022 0:00,4.23174E+13,42,317,XTO Energy/ExxonMobil,Sand Storm Unit 1 0804 0804BH,32.3084,-101.8031,NAD83,8775,30738918,0,Texas,Martin,3,FALSE,FALSE,,
5e71a0e0-9ca0-4383-aaad-c3c42a93c2d9,10/15/2022 0:00,10/30/2022 0:00,4.23295E+13,42,329,Pioneer Natural Resources,Willis Berman NW33AA 101H,31.9064974,-101.9563574,NAD27,8688,17612100,0,Texas,Midland,3,FALSE,FALSE,,
cce1998d-a000-459e-8e8d-96e4c8e881f3,10/15/2022 0:00,10/30/2022 0:00,4.23295E+13,42,329,Pioneer Natural Resources,Willis Berman NW33BB 102H,31.906519,-101.9562641,NAD27,9599,21977238,0,Texas,Midland,3,FALSE,FALSE,,
c6bf84fd-07b2-44a4-9ee0-9e49ac3fb6f0,10/17/2022 0:00,10/30/2022 0:00,4.23295E+13,42,329,Pioneer Natural Resources,Willis Berman NW33CC 103H,31.9065406,-101.9561708,NAD27,8338,15808124,0,Texas,Midland,3,FALSE,FALSE,,
5432c3b7-0e8f-4422-bc1c-c8592809e2fd,9/21/2022 4:00,10/30/2022 4:00,3.70634E+13,37,63,"INR Operating, LLC",Anegada 5HM,40.62672,-79.33548,NAD27,7600,23048970,566214,Pennsylvania,Indiana,3,FALSE,FALSE,,
81f14168-5619-451a-858b-632dabb3dbb5,10/2/2022 4:00,10/30/2022 4:00,3.71152E+13,37,115,COTERRA ENERGY INC.,Starzec E 009,41.850784,-75.875111,NAD83,6523,11558652,0,Pennsylvania,Susquehanna,3,FALSE,FALSE,,
e76262b3-d458-4945-8d57-d8de6f9cf23a,10/17/2022 5:00,10/30/2022 5:00,1.70174E+13,17,17,"EXCO Resources, Inc.",MULLIN 10-3 H 001,32.558467,-93.985906,NAD83,10813,30566542,0,Louisiana,Caddo,3,FALSE,FALSE,,
25289dc2-3cb7-417c-a712-a55b5f8b1ec5,10/23/2022 5:00,10/30/2022 5:00,3.50933E+13,35,93,SandRidge Energy,LIAM 2015 2-36H,36.1727,-98.7548,NAD27,9193,9462504,23800,Oklahoma,Major,3,TRUE,FALSE,,
0521f121-227e-41ce-bce9-b23eb6b0ec0a,10/21/2022 5:00,10/30/2022 5:00,4.21734E+13,42,173,"CrownQuest Operating, LLC",Lexington #11JM,31.850972,-101.74413,NAD27,7718,19156688,0,Texas,Glasscock,3,FALSE,FALSE,,
84cacdab-c009-4888-9a1a-0672316c7501,8/27/2022 5:00,10/30/2022 5:00,4.23174E+13,42,317,XTO Energy/ExxonMobil,Sand Storm Unit 1 0821 0821SH,32.264026,-101.789682,NAD83,8189,31356150,0,Texas,Martin,3,FALSE,FALSE,,
cd0968ec-4a4c-4d92-80e4-f64633419ba7,8/27/2022 5:00,10/30/2022 5:00,4.23174E+13,42,317,XTO Energy/ExxonMobil,Sand Storm Unit 1 0872 0872JH,32.264166,-101.789057,NAD83,7893,31173156,0,Texas,Martin,3,FALSE,FALSE,,
44c0fac3-a46d-4d59-acc9-0c6f027caa50,8/27/2022 5:00,10/30/2022 5:00,4.23174E+13,42,317,XTO Energy/ExxonMobil,Sand Storm Unit 1 0872 0812AH,32.264166,-101.789056,NAD83,8492,26677686,0,Texas,Martin,3,FALSE,FALSE,,
94d079fa-03b5-48ee-93f3-8b6d5175a73b,8/27/2022 5:00,10/30/2022 5:00,4.23174E+13,42,317,XTO Energy/ExxonMobil,Sand Storm Unit 1 0873 0813AH,32.264974,-101.785433,NAD83,8479,30638118,0,Texas,Martin,3,FALSE,FALSE,,
bc18b11d-632b-4f8a-bf83-e7cef54efc77,8/27/2022 5:00,10/30/2022 5:00,4.23174E+13,42,317,XTO Energy/ExxonMobil,Sand Storm Unit 1 0823 0823SH,32.264535,-101.787404,NAD83,8177,31183068,0,Texas,Martin,3,FALSE,FALSE,,
d1b219ad-7600-4ef6-acc9-d62348e06801,10/22/2022 5:00,10/30/2022 5:00,4.23894E+13,42,389,Occidental Oil and Gas,SHIBA INU STATE 55-4-10-9 B 12H,31.60612331,-103.7156228,NAD27,10655,13263642,0,Texas,Reeves,3,FALSE,FALSE,,
2d91822b-dd83-4074-913f-3972732729ba,10/29/2022 6:00,10/30/2022 6:00,3.00452E+13,30,45,SIMCOE LLC,Roelofs 004 004,36.7155,-107.6598,NAD83,7500,122279,24405140.87,New Mexico,San Juan,3,TRUE,FALSE,,
5b25bd4c-969c-4d02-b8b2-566c3fd3a1ab,10/29/2022 6:00,10/30/2022 6:00,3.00452E+13,30,45,SIMCOE LLC,Roelofs 001E 001E,36.7201,-107.6678,NAD83,7500,172187,32849233.01,New Mexico,San Juan,3,TRUE,FALSE,,
2f36c2f8-20ef-4f28-8eee-837c4ba2e4f2,10/1/2022 6:00,10/30/2022 6:00,4.7095E+13,47,95,Antero Resources Corporation,CLUTTER UNIT 2H,39.4936,-80.95607,WGS84,6124,27542148,0,West Virginia,Tyler,3,FALSE,FALSE,,
