JobEndDate,OperatorName,WellName,Latitude,Longitude,TotalBaseWaterVolume,StateName,CountyName
2012,Newfield Exploration,Britt Ranch H46-18H,35.51625,-100.095917,17520000,Texas,Wheeler
2012,Newfield Exploration,Ferguson-McKnight 5272H,28.654144,-99.878533,3821383,Texas,Zavala
2012,Newfield Exploration,Ferguson-McKnight 5271H,28.654121,-99.878608,3574545,Texas,Zavala
2012,Newfield Exploration,Ferguson McKnight 5273H,28.654166,-99.878458,3744199,Texas,Zavala
2012,Pioneer Natural Resources,Watt 01 01H,28.381782,-98.290581,3228458,Texas,Live Oak
2012,Matador Production Company,Martin Ranch A 8H,28.526667,-98.902222,5327219,Texas,La Salle
2012,Pioneer Natural Resources,Herschel Fulbright 01 01H,28.521236,-98.21016,3699360,Texas,Live Oak
2012,Anadarko Petroleum Corporation,Letourneau Gas Unit 7 51HH,32.41075653,-94.6144599,7391538,Texas,Harrison
2012,COBRA OIL & GAS CORPORATION,Grantham 13 #2,32.2435,-101.3902,1151585,Texas,Howard
2012,Occidental Oil and Gas,WALSH & WATTS 83-2,31.70826,-103.60406,157584,Texas,Loving
2012,Steller Energy & Investment Corp,Eleanor  Hoppe #5,31.99973,-101.20238,763770,Texas,Sterling
2012,Halcon Resources Corporation,Champion Ranch B1,31.238482,-95.9170627,2104032,Texas,Frio
2012,"EOG Resources, Inc.",Kotara Carter Unit #1H,29.000172,-97.955136,2083116,Texas,Karnes
2012,Anadarko Petroleum Corporation,Letourneau Gas Unit 7 30HH,32.41075,-94.61449,6340908,Texas,Harrison
2012,Pioneer Natural Resources,Justin Tom 01 03H,28.694964,-98.277327,4074254,Texas,Atascosa
2012,"EOG Resources, Inc.",Merritt #2H,29.327403,-97.46975,4443264,Texas,Gonzales
2012,Pioneer Natural Resources,Green A #6,32.49004038,-101.7925314,1030757,Texas,Martin
2012,"Bluestem Energy Holdings, LLC",AXP A#2R,31.98496,-101.94256,1241058,Texas,Midland
2012,Apache Corporation,SRH-1319,31.47985,-101.45896,997878,Texas,Reagan
2012,"Linn Energy, LLC",Davis 2-4,32.29507,-101.74353,1124973,Texas,Martin
2012,Devon Energy Production Company L. P.,Davis - Bussey (SA) 3H,32.4232267,-97.3041208,4483676,Texas,Johnson
2012,SandRidge Energy,Munger Nix A LZS 81,32.276768,-102.7354868,82055,Texas,Andrews
2012,Devon Energy Production Company L. P.,Edwards 12 11,31.64907,-102.37456,358176,Texas,Crane
2012,"Swift Energy Operating, LLC",PCQ EF #7H,28.454854,-98.519066,4551882,Texas,McMullen
2012,Devon Energy Production Company L. P.,BOOTH L P 3H,32.94147,-97.74618,4514832,Texas,PARKER
2012,Anadarko Petroleum Corporation,Letourneau ET AL 5 24HH,32.41103,-94.57185593,7253848,Texas,Harrison
2012,LeNorman Operating LLC,T. Boone Pickens 101H,35.93,-100.88,1534585,Texas,Roberts
2012,Pioneer Natural Resources,COLLIER 01 01H,29.131836,-97.34644,3807804,Texas,DeWitt
2012,"Linn Energy, LLC",Free 4 40M,32.201262,-101.4,1281471,Texas,Howard
2012,Athlon Energy Operating LLC,Long 7 #1,32.341798,-101.50425,1137906,Texas,Howard
2012,Devon Energy Production Company L. P.,Bass Ernest T 2,31.74548,-102.34717,1287161,Texas,Ector
2012,"Linn Energy, LLC",Hamilton 34-34C,32.30563,-101.80245,1327910,Texas,Martin
2012,"Linn Energy, LLC",McMahan 22 SL 5H,35.32495,-100.09357,5119306,Texas,Wheeler
2012,Anadarko Petroleum Corporation,Letourneau GU 3 26HH,32.41097468,-94.57186729,5910241,Texas,Harrison
2012,"Propel Energy, LLC",Johnson 2 #10,31.870473,-103.528881,19501,Texas,Loving
2012,"EOG Resources, Inc.",Lang Unit #11H,28.910678,-98.206678,2953524,Texas,Wilson
2012,"Linn Energy, LLC",Nobles 30K,31.99314,-102.25748,1294233,Texas,Midland
2012,"Brigham Resources Operating, LLC",Stewart 101,31.173331,-103.183769,908082,Texas,Pecos
2012,"EOG Resources, Inc.",Bighorn #1H,28.859469,-98.419261,4389294,Texas,Atascosa
2012,Pioneer Natural Resources,HT Chapman 02 02H,28.6733,-98.212688,3095442,Texas,Live Oak
2012,Apache Corporation,SRH 1323,31.47478,-101.44882,1040004,Texas,Reagan
2012,J CLEO THOMPSON,Chevron Minerals 41 #3,31.2092966,-103.4429106,745183,Texas,Reeves
2012,J CLEO THOMPSON,Perry State D #7,31.245406,-103.4552791,1479326,Texas,Reeves
2012,"EOG Resources, Inc.",University 40D #0702H,31.0876971,-101.1134239,13559616,Texas,Irion
2012,Matador Production Company,Martin Ranch B 4H,28.51442,-98.915412,2981790,Texas,La Salle
2012,"Linn Energy, LLC",State of Texas 48-48L,32.28881,-101.83362,1444993,Texas,Martin
2012,Partee Drilling Inc,Redfish 3805,32.367061,-101.538889,589467,Texas,Howard
2012,"EOG Resources, Inc.",Thelma Brite #8H,28.547753,-98.608261,5206698,Texas,Mc Mullen
2012,Devon Energy Production Company L. P.,Coomer Unit 5H,32.87,-97.58,4445386,Texas,Parker
2012,Griffin Petroleum Company,Leslie #12,30.8679597,-101.8988509,16436,Texas,Pecos
2012,Pioneer Natural Resources,Gill 01 01H,28.66017,-98.016034,4165896,Texas,Bee
2012,"Linn Energy, LLC",Bob 14 2H,35.62139,-100.19733,7022736,Texas,Hemphill
2012,"Linn Energy, LLC",Bob 14 4H,35.62089,-100.18854,7088886,Texas,Hemphill
2012,"EOG Resources, Inc.",Aclco #3H,31.47724,-94.40181,14564928,Texas,Nacogdoches
2012,Devon Energy Production Company L. P.,Coomer Unit 4H,32.8756841,-97.5853729,5392153,Texas,Parker
2012,"Linn Energy, LLC",Wilson 8-8A,32.27535,-101.78077,1305357,Texas,Martin
2012,"EOG Resources, Inc.",Aclco #2H,31.47717,-94.40178,9987180,Texas,Nacogdoches
2012,"Laredo Petroleum, Inc.",Calverley 40 #5H,31.90694472,-101.4467992,6912726,Texas,Glasscock
2012,"EOG Resources, Inc.",Brothers Unit #2H,29.331042,-97.422267,4085382,Texas,Gonzales
2012,"Linn Energy, LLC",Barnes 3 9 C,32.194879,-101.332509,1103995,Texas,Howard
2012,Steller Energy & Investment Corp,JRS #5H,32.0255417,-101.2053528,2277752,Texas,Sterling
2012,"Escondido Resources II, LLC",Augusta-Kenton 6H,27.523078,-99.28095,93957,Texas,Webb
2012,Rosetta Resources,Gates 10 Rose A 571 3,28.1758512,-99.7492962,2057742,Texas,Webb
2012,"EOG Resources, Inc.",Grimmer Nan D #04,30.61474,-101.19961,162414,Texas,Crockett
2012,Callon Petroleum Operating Company,Amanda #2,31.920513,-102.243615,1032612,Texas,Midland
2012,Anadarko Petroleum Corporation,"Latham, H.L. 5H",32.0195761,-94.40141301,1160777,Texas,Panola
2012,"EOG Resources, Inc.",Aclco #6H,31.49266,-94.40674,8549495,Texas,Nacogdoches
2012,J CLEO THOMPSON,Perry State D #1,31.2528437,-103.4719558,1457772,Texas,Reeves
2012,"EOG Resources, Inc.",Aclco #7H,31.49263,-94.40682,10839108,Texas,Nacogdoches
2012,ConocoPhillips Company/Burlington Resources,WN Waddell ET AL 1330,31.5236871,-102.658296,100225,Texas,Crane
2012,RKI Exploration & Production,CBR 6 22,31.99554,-103.90061,543158,Texas,Loving
2012,Strat Land Exploration Co,Fletcher 2,36.3851,-101.47989,24074,Texas,Hansford
2012,Pioneer Natural Resources,Washburn Ranch 01 02H,28.3623467,-98.8699566,3135300,Texas,La Salle
2012,Talisman Energy USA Inc.,Zapp A3H,28.321194,-99.255776,3945504,Texas,La Salle
2012,Pioneer Natural Resources,Washburn Ranch 01 01H,28.362344,-98.8700499,3379782,Texas,La Salle
2012,Anadarko Petroleum Corporation,Maddox Estate Gas Unit 10H,32.14076,-94.83975999,7241556,Texas,Rusk
2012,Apache Corporation,Gibson 7c 8,31.8614,-101.46761,872172,Texas,Glasscock
2012,"Linn Energy, LLC",Free 40 40E,32.34,-101.67,1521155,Texas,Howard
2012,Devon Energy Production Company L. P.,Newby-Carter 1H,32.9827985,-97.6254032,2907275,Texas,Parker
2012,Athlon Energy Operating LLC,Strickland 19 #1,32.305697,-101.49762,1247487,Texas,Howard
2012,Devon Energy Production Company L. P.,GLENNA SANSONE GAS UNIT 2H,32.78,-97.74,3131658,Texas,Parker
2012,"Linn Energy, LLC",Allar 19 19 J,32.24,-101.79,1475650,Texas,Martin
2012,Pioneer Natural Resources,South Texas Childrens Home 01 02H,28.6063741,-98.2792998,2220162,Texas,Live Oak
2012,"EOG Resources, Inc.",Aclco #5H,31.47731,-94.40342,7180908,Texas,Nacogdoches
2012,"Holmes Exploration, LLC",Lesa Lynette 1027-3HM,36.376844,-100.539988,1721033,Texas,Lipscomb
2012,"EOG Resources, Inc.",Aclco #4H,31.47724,-94.40338,8972418,Texas,Nacogdoches
2012,Pioneer Natural Resources,UNIVERSITY 10-20 #4H,31.24457972,-101.4882511,10573575,Texas,Reagan
2012,Devon Energy Production Company L. P.,King-Guttry-Rives SA 3H,32.2139862,-97.5385682,6320951,Texas,Johnson
2012,J CLEO THOMPSON,Young 269 #3,31.2804309,-103.4750195,1284992,Texas,Reeves
2012,"EOG Resources, Inc.",Henderson State 3 #03,30.59763,-101.43063,158802,Texas,Crockett
2012,"Escondido Resources II, LLC",Storey 4H,28.195186,-98.582607,105340,Texas,La Salle
2012,"Propel Energy, LLC",Johnson 2 #5,31.87164,-103.52862,17952,Texas,Loving
2012,Anadarko Petroleum Corporation,Briscoe Catarina Ranch 14H,28.30393,-99.80891,6684846,Texas,Dimmit County
2012,Anadarko Petroleum Corporation,Frost Gillaspy 10H,32.0646633,-94.20041582,775278,Texas,Panola
2012,Devon Energy Production Company L. P.,King Sisters 12H,32.21377,-97.5383872,2804833,Texas,Johnson
2012,Devon Energy Production Company L. P.,King-Guttry-Rives SA 1H,32.2136912,-97.5385162,7272224,Texas,Johnson
2012,Pioneer Natural Resources,Three Sisters 01 05H,28.544068,-98.2212159,4762086,Texas,Live Oak
2012,Apache Corporation,SRH 1321,31.47474,-101.45945,1032438,Texas,Reagan
2012,"Linn Energy, LLC",Anderson 15 15D,32.152082,-101.405333,1158024,Texas,Howard
2012,BHP Billiton Petroleum,Gallo Rojo A 5H,28.992061,-97.846444,3179106,Texas,Karnes
2012,"Holmes Exploration, LLC",Weinette 'B' 1078-6HM,36.391021,-100.385338,1655004,Texas,Lipscomb
2012,"Linn Energy, LLC",Jerri Reed 3 1H,35.31408,-100.1316,7515971,Texas,Wheeler
2012,"Linn Energy, LLC",Jerri Reed 3 SL 2H,35.31,-100.132,7976133,Texas,Wheeler
2012,Devon Energy Production Company L. P.,Velten 1,33.1186,-97.30698,1230054,Texas,Denton
2012,"Linn Energy, LLC",H.W. Carver #20,35.9245,-101.55502,103150,Texas,Hutchinson
2012,Apache Corporation,SRH 12 1222,31.44854,-101.44424,1092990,Texas,Reagan
2012,Strat Land Exploration Co,Gertrude 2-246,36.40253,-101.47132,27989,Texas,Hansford
2012,Partee Drilling Inc,Rogers 3801,32.36499,-101.55113,584640,Texas,Howard
2012,Pioneer Natural Resources,Owens L #6,31.33089125,-101.9127572,1365643,Texas,Upton
2012,"Jetta Operating Company, Inc",Barstow 33-33 1H,31.434771,-103.332327,2375654,Texas,Ward
2012,Anadarko Petroleum Corporation,CGU 18 51HH,32.14954,-94.41145833,6713448,Texas,Panola
2012,"Linn Energy, LLC",Red Fern 35 O,32.29525,-101.77062,1155349,Texas,Martin
2012,COBRA OIL & GAS CORPORATION,Gaskins 15 #2,32.402333,-101.6800978,1475353,Texas,Howard
2012,J CLEO THOMPSON,Bush 208 #3,31.2311361,-103.5478883,6967698.164,Texas,Reeves
2012,"Linn Energy, LLC",Caroline #3H,31.44163,-101.97084,1305570,Texas,Upton
2012,Pioneer Natural Resources,COSTLOW GU 01 02H,29.0849412,-97.3777387,2629746,Texas,DeWitt
2012,"Bluestem Energy Holdings, LLC",Brunson #3,31.86763,-101.73115,876223.9447,Texas,Glasscock
2012,Devon Energy Production Company L. P.,Rawdon-McGee (SA) 1H,32.524311,-97.175293,10637047,Texas,Johnson
2012,"Linn Energy, LLC",Hink 3 1H,35.51885,-100.03853,7242535,Texas,Wheeler
2012,"Linn Energy, LLC",Hink 3 SL 2H,35.51768,-100.03641,7256983,Texas,Wheeler
2012,Anadarko Petroleum Corporation,CGU 18 52HH,32.14957,-94.41143901,6432006,Texas,Panola
2012,"Bluestem Energy Holdings, LLC",Brunson #2,31.85786,-101.72103,833821.4243,Texas,Glasscock
2012,COBRA OIL & GAS CORPORATION,Glass 3 #2,32.40011,-101.67559,2390090,Texas,Howard
2012,BBX Operating,Frances Kunkel Unit #1H,30.832953,-94.135354,104496,Texas,Jasper
2012,"Jilpetco, Inc.",Hubert #1,32.7707258,-98.1122999,31415,Texas,Palo Pinto
2012,J CLEO THOMPSON,Apollo 2#3,31.2892321,-103.4047554,1030997.472,Texas,Reeves County
2012,Anadarko Petroleum Corporation,CGU 9 51HH,32.14884784,-94.40905825,7134510,Texas,Panola
2012,J CLEO THOMPSON,Graves State #2,31.2229838,-103.4597284,26158965.56,Texas,Pecos
2012,Anadarko Petroleum Corporation,Wheat Trust 1-36 4H,31.6422874,-103.4668758,1277165,Texas,Ward
2012,"EOG Resources, Inc.",University 43A #0805H,31.1237955,-101.2600766,6154890,Texas,Irion
2012,Pioneer Natural Resources,Gerald Burke Schulz 02 01H,28.528021,-98.17711,2703750,Texas,Live Oak
2012,"Walsh & Watts, Inc.",Long A #8,33.3119899,-101.4595009,27174,Texas,Garza
2012,"Walsh & Watts, Inc.",Long 'B' #3,33.314978,-101.4637917,23394,Texas,Garza
2012,Anadarko Petroleum Corporation,CGU 18 53HH,32.14959,-94.41142,6388116,Texas,Panola
2012,Occidental Oil and Gas,Mabee Ranch #139 4605,32.174275,-102.233178,1106486,Texas,Andrews
2012,"Walsh & Watts, Inc.",Parker 'D' #15,31.8232752,-102.5647698,51912,Texas,Ector
2012,Devon Energy Production Company L. P.,KENNY-MCGEE (SA) 1H,32.543892,-97.195282,5170682,Texas,Johnson
2012,"Linn Energy, LLC",Gaskins A 38C,32.3072,-101.84895,1278793,Texas,Martin
2012,Athlon Energy Operating LLC,Davidson 22 A-14,31.687046,-102.101145,1375626,Texas,Midland
2012,J CLEO THOMPSON,Lyda `21` 1,31.25251,-103.43139,1542400,Texas,Reeves
2012,Athlon Energy Operating LLC,ED Books 13 #8,31.728858,-101.441151,1597344,Texas,Glasscock
2012,Devon Energy Production Company L. P.,KENNY-MCGEE (SA) 2H,32.543831,-97.195343,7390861,Texas,Johnson
2012,RKI Exploration & Production,CBR 4 11,31.99895,-103.86834,355477,Texas,Loving
2012,Energen Resources Corporation,"Flannagan, Annie Oil Management/Well No. 2",32.16743,-101.79031,588756,Texas,Martin
2012,"Bluestem Energy Holdings, LLC",Evans #7,31.9682902,-101.7860278,761040,Texas,Midland
2012,Athlon Energy Operating LLC,Robinson 34-1,31.791151,-101.963473,1414854,Texas,Midland
2012,RKI Exploration & Production,CBR 4 11,31.99895,-103.8683389,355477,Texas,Loving
2012,Pioneer Natural Resources,Winslow A #2,32.0517457,-101.6910721,1688045,Texas,Glasscock
2012,"Linn Energy, LLC",H W Carver 16,35.9206251,-101.5552183,55772,Texas,Hutchinson
2012,"Parsley Energy Operations, LLC",Mabee 23 #3,32.075088,-101.997462,1129683,Texas,Midland
2012,J CLEO THOMPSON,Perry State `D` 2,31.25345,-103.46483,1546524,Texas,Reeves
2012,Pioneer Natural Resources,Funkhouser 20B #1,31.42424825,-101.8993364,1235512,Texas,Upton
2012,Pioneer Natural Resources,Knox Miller 01 01H,28.541792,-98.175418,3787728,Texas,Live Oak
2012,Pioneer Natural Resources,University 7-1A 1,32.43127788,-102.1831939,1058748,Texas,Martin
2012,Sanchez Oil & Gas Corporation,Mark & Sandra  1H,28.7047,-99.94226,240183,Texas,Zavala
2012,Anadarko Petroleum Corporation,CGU 9 52HH,32.14881,-94.40901,7007440,Texas,Panola
2012,J CLEO THOMPSON,Hendrick State `252` 1,31.21458,-103.52594,1405471,Texas,Reeves
2012,"Linn Energy, LLC",Noble 3304,31.98774,-102.21518,766927,Texas,Midland
2012,Apache Corporation,Craig 16 5,32.351235,-101.37367,398812,Texas,Howard
2012,"EOG Resources, Inc.",University 43A #0806H,31.1238074,-101.2626335,6140694,Texas,Irion
2012,Pioneer Natural Resources,Watson 01 01H,28.76188,-97.8938,1974168,Texas,Karnes
2012,"EOG Resources, Inc.",University 43A #0804H,31.1238138,-101.2575199,8959314,Texas,Irion
2012,"Linn Energy, LLC",Tyler 3709,31.82908,-102.32285,1452657,Texas,Ector
2012,Parallel Petroleum LLC,"Cothes ""B"" 4",32.524658,-102.681592,9722,Texas,Gaines
2012,"Linn Energy, LLC",Crosby Hatcher -A- 32,35.9095338,-101.5336112,55772,Texas,Hutchinson
2012,COG Operating LLC,Mabee 240B-203,32.301973,-102.270172,1145844,Texas,Andrews
2012,"Linn Energy, LLC",Huth 2005,35.903493,-101.5184024,55772,Texas,Hutchinson
2012,J CLEO THOMPSON,Hendricks 252 #3,31.2494701,-103.5261133,1035245,Texas,Reeves
2012,J CLEO THOMPSON,Mariinsky State `8` 17,31.28433,-103.34135,422108,Texas,Reeves
2012,PETEX,"Harrell ""4"" Unit #1",32.6306215,-98.8766129,67704,Texas,Stephens
2012,"Linn Energy, LLC",Robbie 1,32.0106,-102.1031,162185,Texas,Midland
2012,Anadarko Petroleum Corporation,CGU 9 53HH,32.14888491,-94.40910581,5850227,Texas,Panola
2012,Devon Energy Production Company L. P.,Bettinger 2,31.538596,-96.347779,360504,Texas,Limestone
2012,J CLEO THOMPSON,Graves State 7,31.23553,-103.46858,759209,Texas,Reeves
2012,Pioneer Natural Resources,Stone 45 3,32.07976982,-101.7151281,1646176,Texas,Glasscock
2012,"Holmes Exploration, LLC",Pope 140-3H,36.140371,-101.052374,1720098,Texas,Ochiltree
2012,J CLEO THOMPSON,Perry State `C` 7 2,31.27366,-103.46394,771977,Texas,Reeves
2012,"Newark E&P Operating, LLC",Cobra Unit 23H,32.77347,-97.04685,412020,Texas,Tarrant
2012,Occidental Oil and Gas,GLDU 251,32.0107,-102.6795,64248,Texas,Ector
2012,COG Operating LLC,Ratliff A 1710,32.007975,-102.341556,1244082,Texas,Ector
2012,"Linn Energy, LLC",Crosby Hatcher -A- 31,35.9062083,-101.5336112,55772,Texas,Hutchinson
2012,"Linn Energy, LLC",Carver Area Waterflood Unit 2 40,35.8925472,-101.5578445,55772,Texas,Hutchinson
2012,"Newark E&P Operating, LLC",Viper 9H,32.77491,-97.04617,481152,Texas,Tarrant
2012,COG Operating LLC,Mabee 240C-123,32.296756,-102.25969,997038,Texas,Andrews
2012,"EOG Resources, Inc.",Bar Inverted T Unit #6H,29.154067,-97.626364,3146304,Texas,Gonzales
2012,J CLEO THOMPSON,Chapman State 3,31.22428,-103.44211,708683,Texas,Reeves
2012,Athlon Energy Operating LLC,Davidson 46-8,31.635754,-102.079554,1433754,Texas,Upton
2012,"Linn Energy, LLC",Puryear 28 14H,35.2820764,-100.0838025,5385373,Texas,Wheeler
2012,Strat Land Exploration Co,Pittman 1069,36.20316,-101.15104,14204,Texas,Hansford
2012,Pioneer Natural Resources,Smolik 01 01H,28.829933,-97.818757,3626238,Texas,Karnes
2012,Pioneer Natural Resources,Smolik 01 02H,28.829961,-97.818723,3914778,Texas,Karnes
2012,Pioneer Natural Resources,Smolik 01 03H,28.82999,-97.818769,3983742,Texas,Karnes
2012,Anadarko Petroleum Corporation,CGU 10 52HH,32.19151906,-94.3518596,7529371,Texas,Panola
2012,"Parsley Energy Operations, LLC",Linda 1 #1,31.44891059,-101.9210541,6300000,Texas,Upton
2012,Cinco Natural Resources Corporation,RNG Unit Well #2H,28.78003,-98.58646,8393616,Texas,Atascosa
2012,Summit Petroleum LLC,Nancy #2609X,31.52207,-102.22368,0,Texas,Upton
2012,Rosetta Resources,Gates 05D 1-12A,28.0507,-99.453,5023414,Texas,Webb
2012,Rosetta Resources,Gates 05D 10-12,28.0507,-99.4531,5033624,Texas,Webb
2012,Newfield Exploration,Britt 9-4H,35.546972,-100.054194,9344219,Texas,Wheeler
2012,Approach Resources,Cinco Terry K1901,30.87023,-101.43264,1619135,Texas,Crockett
2012,"Holmes Exploration, LLC",Jack Russell 917-1HM,36.348033,-100.659591,1543127,Texas,Ochiltree
2012,Rosetta Resources,Gates 05D 2-12A,28.0507,-99.453,4818486,Texas,Webb
2012,"Linn Energy, LLC","Carver, W.A. 64",35.8771389,-101.5602723,55772,Texas,Hutchinson
2012,"Linn Energy, LLC",W A Carver 65,35.8855972,-101.5509139,55772,Texas,Hutchinson
2012,"Linn Energy, LLC",Nobles 2912,32.000066,-102.133894,1005060,Texas,Midland
2012,Summit Petroleum LLC,Robbie Jane #4012,31.5027,-102.15478,6300000,Texas,Upton
2012,"Linn Energy, LLC",Puryear 28 15H,35.2913855,-100.081617,5670813,Texas,Wheeler
2012,Resolute Natural Resources,State Oatman #4,31.49999,-103.686336,1665480,Texas,Reeves
2012,"Linn Energy, LLC",Black Trust 49 4H,35.50227,-100.16168,5292042,Texas,Wheeler
2012,"Linn Energy, LLC",Tyler 3708,31.82444,-102.30997,777714,Texas,Ector
2012,"Piedra Operating, LLC",Cooper 3,31.9634198,-101.669428,797216,Texas,Glasscock
2012,"Linn Energy, LLC",Young 33 29,35.68613,-100.44099,473214,Texas,Hemphill
2012,"Propel Energy, LLC",Johnson 2 #11,31.870499,-103.524366,17810,Texas,Loving
2012,"Linn Energy, LLC",Black 50 SL 6H,35.50319,-100.16921,6885085,Texas,Wheeler
2012,Devon Energy Production Company L. P.,Lott 1-1,35.319,-100.1219,640278,Texas,Wheeler
2012,Anadarko Petroleum Corporation,CGU 10 51HH,32.1915515,-94.35188958,9717036,Texas,Panola
2012,Pioneer Natural Resources,Ressman 01 02H,29.006644,-97.591916,3375246,Texas,DeWitt
2012,EP Energy,University 43-17 2H,31.10238,-101.26801,6610968,Texas,Irion
2012,"Linn Energy, LLC",Puryear 28 16H,35.2913752,-100.0751827,5766087,Texas,Wheeler
2012,ConocoPhillips Company/Burlington Resources,WN Waddell ET AL 274,31.5158391,-102.6518184,38371,Texas,Crane
2012,"Linn Energy, LLC",Nobles #31FF,31.98296,-102.24794,1023372,Texas,Midland
2012,Diamondback E&P LLC,ST 44-4,31.961931,-102.2300233,1117326,Texas,Midland
2012,"Holmes Exploration, LLC",King 1077-1HM,36.403513,-100.368931,2315111,Texas,Lipscomb
2012,J CLEO THOMPSON,Kreps 257#1 R,31.2919205,-103.5150872,1060570,Texas,Reeves
2012,"Linn Energy, LLC",Spurlock 26,35.9236305,-101.6127917,55772,Texas,Hutchinson
2012,"EOG Resources, Inc.",University 43A #0802H,31.1238145,-101.2524063,6699630,Texas,Irion
2012,J CLEO THOMPSON,Chevron Minerals `17` 2,31.26655,-103.35402,1143555,Texas,Reeves
2012,"Midenergy Operating, LLC",Vaughan 5503,31.492142,-102.046218,697997,Texas,Upton
2012,"Linn Energy, LLC",Ona Black 49 SL 5H,35.50381,-100.15628,7924392,Texas,Wheeler
2012,"Jilpetco, Inc.",WWJD #5,30.8834685,-102.2010179,16800,Texas,Pecos
2012,"Linn Energy, LLC",Ona Black 49 SL 6H,35.50357,-100.15016,7292384,Texas,Wheeler
2012,Anadarko Petroleum Corporation,"Latham, H.L. 6H",32.0206948,-94.3938295,1280202,Texas,Panola
2012,Endeavor Energy Resources,Daniel Huling #3,31.7274,-101.5244,1194858,Texas,Glasscock
2012,Pioneer Natural Resources,Abraxas 31C #3,32.43552192,-101.8365446,1348788,Texas,Martin
2012,Pioneer Natural Resources,Schorlemer 02 02H,29.021029,-97.554958,3399396,Texas,DeWitt
2012,Pioneer Natural Resources,Schorlemer 02 03H,29.021061,-97.554929,3399396,Texas,DeWitt
2012,Pioneer Natural Resources,Driver A #5,31.79764165,-101.7980188,1575672,Texas,Midland
2012,"EOG Resources, Inc.",Joseph Unit #7H,28.851964,-98.097194,2692242,Texas,Karnes
2012,Pioneer Natural Resources,Wood Family 28 #3,31.77938769,-101.6099812,1520230,Texas,Glasscock
2012,Rosetta Resources,Adele Dubose #2,29.0931,-97.3445,3172856,Texas,Gonzales
2012,Strat Land Exploration Co,GOSSETT 3H,36.35,-100.02,384325,Texas,Lipscomb
2012,Pioneer Natural Resources,Vogler 15 #1,32.47665335,-102.0516432,1352820,Texas,Martin
2012,COG Operating LLC,Mabee 240C-1003,32.286099,-102.273985,1092840,Texas,Andrews
2012,COBRA OIL & GAS CORPORATION,"Grantham ""50"" #2",32.3850246,-101.6901575,1352905,Texas,Martin
2012,"Holmes Exploration, LLC",Harbaugh Courson 141-4H,36.08188889,-100.868,1844126,Texas,Ochiltree
2012,Callon Petroleum Operating Company,Neal 307,31.305306,-101.9027711,1262787,Texas,Upton
2012,"Jilpetco, Inc.",WWJD #4,30.8844691,-102.1975275,21378,Texas,Pecos
2012,Griffin Petroleum Company,Ashlee #21,30.8839542,-101.9041514,11257,Texas,Pecos
2012,COG Operating LLC,Mabee 240C-104,32.30841,-102.259065,1031688,Texas,Andrews
2012,Pioneer Natural Resources,Schorlemer 02 01H,29.020998,-97.554987,3399396,Texas,DeWitt
2012,Devon Energy Production Company L. P.,Coronado 2H,31.1531,-101.19612,6000286,Texas,Irion
2012,Devon Energy Production Company L. P.,Hefley 1-37,35.36571,-100.16361,2129139,Texas,Wheeler
2012,Anadarko Petroleum Corporation,"Rogers, Fred Unit 31H",32.18794,-94.85879,6299286,Texas,Rusk
2012,Bluescape Resources,HBR 2HB,28.909005,-99.237656,7125521,Texas,Frio
2012,"EOG Resources, Inc.",University 43A #0803H,31.1245002,-101.2549697,9285066,Texas,Irion
2012,Pioneer Natural Resources,Sale Ranch #13,32.20191831,-101.9349182,1181124,Texas,Martin
2012,J CLEO THOMPSON,Mariinsky State 8 4,31.27595,-103.34583,791183,Texas,Reeves
2012,LeNorman Operating LLC,T BOONE PICKENS 202 H,35.560383,-100.513586,2965411,Texas,Roberts County
2012,HighMount Exploration & Production,Moore 29 1,30.86915,-100.79855,1569116,Texas,Schleicher
2012,"Jetta Operating Company, Inc",Barstow 11 6,31.44388,-103.37109,639757,Texas,Ward
2012,"Escondido Resources II, LLC",Nichols 2H,28.184683,-98.342324,93957,Texas,McMullen
2012,"Linn Energy, LLC",Zybach-Tipps 12 3H,35.6045,-100.20344,6845622,Texas,Wheeler
2012,ConocoPhillips Company/Burlington Resources,University Andrews 203 Revision A,32.127036,-102.713406,225398,Texas,Andrews
2012,Approach Resources,University 45 703H,30.977,-101.2816,10459302,Texas,Crockett
2012,Bluescape Resources,HBR 1HB,28.908967,-99.237668,180804,Texas,Frio
2012,Endeavor Energy Resources,Walter Kelly 19-2,32.0639,-101.5138,994958,Texas,Martin
2012,"Aztec Drilling & Operating, LLC",Aztec-Wilson P Unit 2 #21B,29.2068792,-99.0860667,19656,Texas,Medina
2012,ConocoPhillips Company/Burlington Resources,WN Waddell ET AL 1544,31.5303611,-102.6297222,68827,Texas,Crane
2012,Summit Petroleum LLC,Shelby Fayth #3814,31.73758,-102.14042,1060500,Texas,Midland
2012,"Holmes Exploration, LLC",Betty Jo Graves 133-4H,36.09972222,-100.7954444,1749749,Texas,Ochiltree
2012,Partee Drilling Inc,Rogers 3802,32.37224,-101.55343,619794,Texas,Howard
2012,J CLEO THOMPSON,Perry State `C` 7 3,31.28048,-103.46603,779528,Texas,Reeves
2012,"Hannathon Petroleum, LLC",Halff 32 #1,31.4174,-101.784,3092431,Texas,Upton
2012,"Linn Energy, LLC",Spurlock 28,35.9179722,-101.6193028,25165,Texas,Hutchinson
2012,"Linn Energy, LLC",Spurlock 29,35.910525,-101.6191778,55772,Texas,Hutchinson
2012,Pioneer Natural Resources,DAVID SAENZ 01 01H,28.5816,-98.118812,3366594,Texas,Live Oak
2012,BHP Billiton Petroleum,Wheeler 3 1H,28.398101,-98.40857,3476508,Texas,McMullen
2012,"Canan Operating, Inc.",Scaling Mayfield B # 1H,33.6417,-98.0046,4326294,Texas,Clay
2012,COG Operating LLC,Mabee 240B-1604,32.312651,-102.273413,878178,Texas,Andrews
2012,Pioneer Natural Resources,Slaughter 29C #1,32.45038669,-101.854916,1390410,Texas,Martin
2012,"Texakoma Operating, L.P.",E McMordie 125 3,35.9058,-100.66,462057,Texas,Roberts
2012,Endeavor Energy Resources,Guitar 26 #6,32.176,-101.4007,1156398,Texas,Howard
2012,"EOG Resources, Inc.",University 43 #0901H,31.1233786,-101.2468746,5974626,Texas,Irion
2012,Pioneer Natural Resources,Turner 1201 #5,31.33927965,-101.6779355,1684914,Texas,Reagan
2012,Valence Operating Company,L D Williams No 1,31.64023,-96.23919,314286,Texas,Freestone
2012,"Linn Energy, LLC",Nobles 2913,32.001042,-102.135628,1540980,Texas,Midland
2012,Devon Energy Production Company L. P.,Lea P J Et Al 194,31.40492,-102.52479,86155,Texas,Crane
2012,"Nadel and Gussman Permian, LLC",Charger 16 #1,31.879153,-101.331953,668220,Texas,Glasscock
2012,"Holmes Exploration, LLC",Buddy 998-5HM,36.37561111,-100.5358333,1690595,Texas,Lipscomb
2012,COG Operating LLC,Mabee 240B-1602,32.307007,-102.280804,1473192,Texas,Andrews
2012,Parallel Petroleum LLC,CSAU 1022,32.547447,-102.617992,26814,Texas,Gaines
2012,Fidelity Exploration & Production,Chestnut #7 ?,26.240483,-98.453098,218957,Texas,Hidalgo
2012,Pioneer Natural Resources,Darwin 22 #2,32.3273489,-101.8013307,1586592,Texas,Martin
2012,"Linn Energy, LLC",Fuller 20,36.00484141,-101.6421491,55772,Texas,Moore
2012,"Holmes Exploration, LLC",Dooney 997-1HM,36.37516667,-100.5188333,1872436,Texas,Lipscomb
2012,"Linn Energy, LLC",Gaskins A 38I,32.3097101,-101.844029,1322696,Texas,Martin
2012,Pioneer Natural Resources,Sale Ranch #11,32.2062751,-101.9456589,1134168,Texas,Martin
2012,"MWS Producing, Inc.",University 3 #2,30.990274,-101.339344,96222,Texas,Crockett
2012,Mid-States Operating Company,Felder 21 #4,31.929643,-101.964986,1718976,Texas,Midland
2012,Pioneer Natural Resources,Funkhouser 20 #5,31.42207981,-101.9078842,1282428,Texas,Upton
2012,"Jetta Operating Company, Inc",Neely S T 4,31.44638,-103.37834,638505,Texas,Ward
2012,Pioneer Natural Resources,Sandefur 38 #1,32.03461297,-101.9706746,1615656,Texas,Midland
2012,Pioneer Natural Resources,University 3-32 #4H,31.202987,-101.792131,7535220,Texas,Upton
2012,"Linn Energy, LLC",Gaskins 38L,32.300603,-101.8557054,997636,Texas,Martin
2012,Anadarko Petroleum Corporation,Letourneau Gas Unit 4 18HH,32.42021759,-94.60426924,8012764,Texas,Harrison
2012,ConocoPhillips Company/Burlington Resources,WN Waddell ET AL 584,31.524589,-102.6840124,92621,Texas,Crane
2012,"EOG Resources, Inc.",University 43A #0801H,31.1238162,-101.2498494,7240086,Texas,Irion
2012,"Parsley Energy Operations, LLC",Shackelford 7 #9,31.64301428,-101.9219437,1670718,Texas,Upton
2012,Anadarko Petroleum Corporation,Covington 34-224 1H,31.5732514,-103.4005187,1129901,Texas,Ward
2012,Energen Resources Corporation,University 36-20/Well No. 1,31.68777,-103.27447,3042312,Texas,Winkler
2012,Callon Petroleum Operating Company,Annie #3,31.956996,-102.250471,1126146,Texas,Midland
2012,"Linn Energy, LLC",Pritchard -C- 10,36.0009622,-101.6283653,37026,Texas,Moore
2012,Pioneer Natural Resources,Cook 21 #6,32.46980878,-101.8161399,1274406,Texas,Martin
2012,"E.G.L. Resources, Inc.",Spanish Trail #3804,31.98024444,-102.1677694,731304,Texas,Midland
2012,"Linn Energy, LLC",Dobson Ranch 40 4H,35.48885,-100.02089,7518571,Texas,Wheeler
2012,Devon Energy Production Company L. P.,Sherry 8,31.6802,-102.35347,9204145,Texas,Ector
2012,"Jilpetco, Inc.",WWJD B #2,30.8809417,-102.2092368,64988,Texas,Pecos
2012,Pioneer Natural Resources,Turner 1202 #5,31.32000052,-101.6740369,1681344,Texas,Reagan
2012,HighMount Exploration & Production,Mayer Edwin S Jr U-15,30.628,-100.868,97734,Texas,Sutton
2012,LCS Production Company,WWJD #B2,30.8819417,-102.2029368,36763,Texas,Pecos
2012,Energen Resources Corporation,West Fuhrman-Mascho Unit/Well No. 1732,32.22437,-102.70258,30114,Texas,Andrews
2012,BHP Billiton Petroleum,Slone B #1H,29.221026,-97.294724,3727648,Texas,DeWitt
2012,Pioneer Natural Resources,Hopper 36 #4,32.32673888,-101.8374761,1675254,Texas,Martin
2012,Pioneer Natural Resources,Vogler 15 #3,32.47550322,-102.0567888,1617996,Texas,Martin
2012,Endeavor Energy Resources,Evans 52 #2,32.0059,-101.5306,1033262,Texas,Martin
2012,"Jilpetco, Inc.",WWJD #6,30.880316,-102.1985691,35028,Texas,Pecos
2012,Pioneer Natural Resources,J. Brown 9 #1,32.57723437,-102.0726024,1290072,Texas,Dawson
2012,Pioneer Natural Resources,DWORACZYK 01 02H,29.022536,-97.574852,5440932,Texas,DeWitt
2012,Pioneer Natural Resources,DWORACZYK 01 03H,29.022571,-97.574829,5371506,Texas,DeWitt
2012,Pioneer Natural Resources,DWORACZYK 01 04H,29.022607,-97.574806,5440932,Texas,DeWitt
2012,Forestar,Shell Fee 61-1H,36.04094,-100.24886,1548586,Texas,Hemphill
2012,Pioneer Natural Resources,Cravens 31 #6,31.3551963,-101.935591,1251684,Texas,Upton
2012,"Linn Energy, LLC",Dobson Ranch 40 SL 5H,35.48856,-100.01447,9651302,Texas,Wheeler
2012,"Dominion Natural Resources, LLC",I.G. Yates #D-121,30.89967,-101.91765,17052,Texas,Pecos
2012,"Dominion Natural Resources, LLC",I.G. Yates #F101,30.90889,-101.91424,16548,Texas,Pecos
2012,"EOG Resources, Inc.",University 40 #1314H,31.080751,-101.1988221,7076244,Texas,Irion
2012,"Riley Exploration, LLC",Spendlove 1H,29.0053365,-97.7977647,3821244,Texas,Karnes
2012,"Dominion Natural Resources, LLC",I.G. Yates #D-118,30.89638,-101.91578,17220,Texas,Pecos
2012,"Dominion Natural Resources, LLC",I.G. Yates #D-120,30.90202,-101.91782,17262,Texas,Pecos
2012,"Dominion Natural Resources, LLC",I.G. Yates #G-107,30.90529,-101.93151,16842,Texas,Pecos
2012,Pioneer Natural Resources,University 3-31 #4H,31.2029688,-101.7886127,7844256,Texas,Upton
2012,"Hannathon Petroleum, LLC",Talley 2 #1,31.3307,-101.77732,3065366,Texas,Upton
2012,Anadarko Petroleum Corporation,Letourneau Gas Unit 4 27HH,32.40216693,-94.60420526,9880810,Texas,Harrison
2012,COG Operating LLC,Mabee 240C-1004,32.279032,-102.271978,1457820,Texas,Andrews
2012,Anadarko Petroleum Corporation,Briscoe Catarina North 62H,28.32207778,-99.83497,5266280,Texas,Dimmit
2012,J CLEO THOMPSON,Chevron Minerals 51-11 #2,31.278626,-103.3906901,1112244,Texas,Reeves
2012,Summit Petroleum LLC,Abbie Laine #3907,31.72779,-102.14918,1168650,Texas,Midland
2012,"Holmes Exploration, LLC",Courson 126-4H,36.11441667,-100.8543889,1707421,Texas,Ochiltree
2012,"Linn Energy, LLC",Miller Spinney 39 1H,35.467831,-100.006313,8190630,Texas,Wheeler
2012,"Linn Energy, LLC",Miller Spinney 39 2H,35.50312,-100.03394,8219820,Texas,Wheeler
2012,"Linn Energy, LLC",Miller Spinney 39 3H,35.4893,-100.02405,7087450,Texas,Wheeler
2012,COG Operating LLC,Ratliff B 1610,32.009919,-102.33335,397194,Texas,Ector
2012,"Linn Energy, LLC",Tyler 3706,31.830005,-102.32609,1217691,Texas,Ector
2012,Parallel Petroleum LLC,CSAU 401R,32.553514,-102.621564,19740,Texas,Gaines
2012,Pioneer Natural Resources,Jim Tom 29 #2,32.12167795,-101.7399805,1394694,Texas,Martin
2012,"Linn Energy, LLC",Fuller 23A,36.002755,-101.639679,55772,Texas,Moore
2012,ConocoPhillips Company/Burlington Resources,W. N. Waddell ET AL Well 584,31.524589,-102.6840124,92621,Texas,Crane
2012,Pioneer Natural Resources,Ragland 2 #2,32.18163276,-101.7106871,1573950,Texas,Martin
2012,"Clear Fork, Inc.",EVB (Canyon Sand Unit) 1459,32.3314377,-100.272319,28000,Texas,Nolan
2012,"Holmes Exploration, LLC",Bernard Philipp 217-2H,36.10097222,-100.7298611,1713060,Texas,Ochiltree
2012,"MWS Producing, Inc.",University 3N #4,30.993141,-101.348669,103152,Texas,Crockett
2012,Interstate Explorations LLC,James Worley No. 1,31.20658,-95.63593,11986,Texas,Houston
2012,Talisman Energy USA Inc.,Wesley Swaim A1H,28.5588888,-98.5433333,3517040,Texas,McMullen
2012,COG Operating LLC,Janey 14 1,31.37228149,-101.977242,1365830,Texas,Upton
2012,"Jetta Operating Company, Inc",Barstow -26- 5,31.44962,-103.38374,639975,Texas,Ward
2012,"Ray Richey Managment Company, Inc.",O K Goode #1,33.22997,-97.740252,8610,Texas,Wise
2012,Anadarko Petroleum Corporation,"Lloyd, C.E. ETAL Gas Unit 5 8H",32.189707,-94.861522,4931476,Texas,Rusk
2012,Pioneer Natural Resources,XBC Giddings Estate #1005,31.49588314,-101.9419299,1250802,Texas,Upton
2012,ConocoPhillips Company/Burlington Resources,Willeke Unit B 1,28.968464,-97.716478,3505620,Texas,De Witt
2012,"Nadel and Gussman Permian, LLC",Bearkat 17 #4,31.873139,-101.339028,666456,Texas,Glasscock
2012,Anadarko Petroleum Corporation,CGU 10 53HH,32.18760313,-94.35559192,9241492,Texas,Panola
2012,"Piedra Operating, LLC",Mabee 19  2,32.3620662,-102.1456305,1012620,Texas,Martin
2012,"Linn Energy, LLC",Nobles #2914,32.00148,-102.24138,1089564,Texas,Midland
2012,Pioneer Natural Resources,Cravens 31 #8,31.36393159,-101.9328162,1447152,Texas,Upton
2012,Occidental Oil and Gas,Midland Farms AM 11,32.178636,-102.3596,668331,Texas,Andrews
2012,Occidental Oil and Gas,MIDLAND FARMS AM 11,32.17863611,-102.3596,668331,Texas,Andrews
2012,COG Operating LLC,Mabee 240B-1702,32.308631,-102.29016,1429638,Texas,Andrews
2012,Newfield Exploration,Moro Creek 3304H,28.386916,-99.795937,6626468,Texas,Dimmit
2012,"Bluestem Energy Holdings, LLC",Calverly #2,31.8047885,-101.6568089,791700,Texas,Glasscock
2012,"Bluestem Energy Holdings, LLC",Weaver #3,31.8242881,-101.6609831,938616,Texas,Glasscock
2012,Devon Energy Production Company L. P.,J.P. MEEK 16-69H,35.3825692,-100.2226508,564258,Texas,Hemphill
2012,NFR Energy LLC,Sustr Unit 1H,29.545644,-97.099881,8565438,Texas,Lavaca
2012,COBRA OIL & GAS CORPORATION,Baker 46 #1,32.4366139,-101.6951204,1624752,Texas,Martin
2012,Pioneer Natural Resources,Slaughter 87B #1,32.45931846,-101.866295,1533840,Texas,Martin
2012,"Midenergy Operating, LLC",Neal 5805,31.480876,-102.061354,75321,Texas,Upton
2012,Occidental Oil and Gas,University Roxanne 5,32.380619,-102.402775,914150,Texas,Andrews
2012,"Sheridan Production Company, LLC",BTLT -B- - # 12,26.4885514,-98.4619101,285469,Texas,Hidalgo
2012,"Linn Energy, LLC",Hill 6-6K,32.386416,-101.806129,1176462,Texas,Martin
2012,Apache Corporation,SRH 12 #1223,31.45169,-101.43253,978614,Texas,Reagan
2012,Steller Energy & Investment Corp,Foster #604,31.97672778,-101.2253,1117872,Texas,Sterling
2012,Rosetta Resources,Gates 05D 3-12A,28.0517,-99.4518,5619906,Texas,Webb
2012,Rosetta Resources,Gates 05D 4-12A,28.0517,-99.4518,5553433,Texas,Webb
2012,Rosetta Resources,Gates 05D 6-12A,28.0518,-99.4518,5378405,Texas,Webb
2012,"Ray Richey Managment Company, Inc.",O. K. Goode #1,33.22997,-97.740252,7602,Texas,Wise
2012,"MWS Producing, Inc.",University 23W #3,30.998291,-101.3353262,94962,Texas,Crockett
2012,Pioneer Natural Resources,Corson B5 #4,32.05570506,-101.7157984,1570968,Texas,Glasscock
2012,Strat Land Exploration Co,Denise 3275,36.13628,-100.20064,29941,Texas,Lipscomb County
2012,HighMount Exploration & Production,Jones 1661H,36.08532,-100.20324,2488206,Texas,Lipscomb
2012,"Holmes Exploration, LLC",Dan 590-1HM,36.24497222,-100.4829444,1734678,Texas,Lipscomb
2012,Pioneer Natural Resources,Jack Meeks 01 04H,28.673619,-98.27805,2812908,Texas,Live Oak
2012,Pioneer Natural Resources,Jack Meeks 01 05H,28.673613,-98.21532,2318064,Texas,Live Oak
2012,J CLEO THOMPSON,Cooper 15 #4,31.2669444,-103.4705556,789684,Texas,Reeves
2012,Anadarko Petroleum Corporation,CGU 8 57HH,32.122989,-94.391911,7047322,Texas,Panola
2012,COG Operating LLC,Mabee 239-503,32.265527,-102.179156,1651482,Texas,Martin
2012,Pioneer Natural Resources,University 10-13 5H,31.27996527,-101.5522165,8612016,Texas,Reagan
2012,"Escondido Resources II, LLC",Nichols State Unit 3H,28.190969,-98.331367,161334,Texas,McMullen
2012,Anadarko Petroleum Corporation,CGU 10 54HH,32.18758828,-94.35563714,7409208,Texas,Panola
2012,Devon Energy Production Company L. P.,McKnight M B #202,31.56258,-102.68005,430579,Texas,Crane
2012,Devon Energy Production Company L. P.,Mary Ellen 3,31.69894,-102.33696,788235,Texas,Ector
2012,"EOG Resources, Inc.",Munson #1004H,31.10363,-101.033712,8751372,Texas,Irion
2012,Pioneer Natural Resources,Rufus #7,32.48632386,-101.8122164,1212721,Texas,Martin
2012,"CrownQuest Operating, LLC",Guitar 5 #3,32.28235,-101.79654,1036854,Texas,Martin
2012,J CLEO THOMPSON,Toyah Lake `4` 1,31.28989,-103.4316,619420,Texas,Reeves
2012,"Ray Richey Managment Company, Inc.",Yeatts Unit #1H,33.23738,-97.726022,3035130,Texas,Wise
2012,Matador Production Company,Matador Pawelek Orca 2H,28.82107,-98.099567,5902847,Texas,Karnes
2012,Vantage Fort Worth Energy LLC,Southcliff North 1H,32.6737,-97.3807,3423000,Texas,Tarrant
2012,Parallel Petroleum LLC,Iverson #9,32.520072,-102.684528,12945,Texas,Gaines
2012,Parallel Petroleum LLC,Hall #4,32.522961,-102.665428,12945,Texas,Gaines
2012,Devon Energy Production Company L. P.,MCKNIGHT M B 222,31.56301,-102.67488,438568.2,Texas,Crane
2012,Pioneer Natural Resources,J. Brown 25 #1,32.54844176,-102.0924664,1126776,Texas,Dawson
2012,COBRA OIL & GAS CORPORATION,Grantham 12 #3,32.4202295,-101.6561827,1275794,Texas,Howard
2012,Pioneer Natural Resources,Abraxas 30 #3,32.43039442,-101.8570686,1291332,Texas,Martin
2012,"Parsley Energy Operations, LLC",Dusek `45` 3,31.6533,-102.005922,450660,Texas,Midland
2012,Newfield Exploration,CMWW A 104H,28.35287,-99.836586,2838827,Texas,Dimmit
2012,"Linn Energy, LLC",Tyler 3716,31.83486,-102.31304,1388856,Texas,Ector
2012,Strat Land Exploration Co,Charles 1,36.31243,-101.53175,7904,Texas,Hansford
2012,Pioneer Natural Resources,Schmidt Family 01 01H,28.614831,-98.089628,3872400,Texas,Live Oak
2012,Pioneer Natural Resources,Deatherage 23 #1,32.39800775,-101.9536772,1123920,Texas,Martin
2012,Devon Energy Production Company L. P.,Acola C - Acola A (SA) 1H,33.1257617,-97.5027701,8166430.2,Texas,Wise
2012,Devon Energy Production Company L. P.,Acola C - Acola A (SA) 1H,33.1257617,-97.5027701,8166430.2,Texas,Wise
2012,Sanchez Oil & Gas Corporation,Petro Pards 1H,28.6933544,-99.91492158,3134188,Texas,Zavala
2012,"Viejo Energy I, LLC",Connell Estate #5,31.6174258,-102.5890256,90000,Texas,Crane
2012,"MWS Producing, Inc.",University 22A #4,31.0014,-101.359919,93954,Texas,Crockett
2012,Approach Resources,Pangea West 6601H,31.0174,-101.4766,10538682,Texas,Crockett
2012,Approach Resources,Pangea West 6602 HX,31.0157,-101.4764,10498152,Texas,Crockett
2012,COG Operating LLC,Ratliff C 1809,32.00605,-102.367772,767928,Texas,Ector
2012,Pioneer Natural Resources,XBC Giddings Estate #1013,31.51598604,-101.9606069,1221654,Texas,Upton
2012,Devon Energy Production Company L. P.,Adele Clough GU A 9,33.1183991,-97.5115901,931036,Texas,Wise
2012,Pioneer Natural Resources,University 58-9A #3,31.31008563,-101.8743963,1294384,Texas,Upton
2012,Sanchez Oil & Gas Corporation,Petro Pards 2H,28.6933352,-99.91491829,3357243,Texas,Zavala
2012,"EOG Resources, Inc.",Munson #1002H,31.10351,-101.03378,8474424,Texas,Irion
2012,Pioneer Natural Resources,S TX Childrens Home 01 03H,28.611772,-98.27805,2968812,Texas,Live Oak
2012,Anadarko Petroleum Corporation,"McWilliams, J. Gas Unit 10H",32.185094,-94.883353,5928992,Texas,Rusk
2012,Pioneer Natural Resources,University 7-1 #9,32.44234495,-102.1726175,1116473,Texas,Martin
2012,"TACOR Resources, Inc.",Lee Smith #86,33.07553609,-100.2255621,166278,Texas,Stonewall
2012,"Parsley Energy Operations, LLC",JRS Farms 22 #8,31.592527,-101.954156,1174278,Texas,Upton
2012,Warren American Oil Company,University 234 #7,30.990022,-101.322467,63,Texas,Crockett
2012,"Bluestem Energy Holdings, LLC",Calverly #3,31.7981463,-101.6546837,713202,Texas,Glasscock
2012,"Bluestem Energy Holdings, LLC",Weaver #7,31.812185,-101.6591789,445326,Texas,Glasscock
2012,COBRA OIL & GAS CORPORATION,"Blagrave ""17"" #2",32.18452,-101.53832,1492359,Texas,Howard
2012,COBRA OIL & GAS CORPORATION,Gaskins 14 #2,32.3987632,-101.6679682,1399758,Texas,Howard
2012,Mid-States Operating Company,Benners #504,31.975822,-101.960093,1749300,Texas,Midland
2012,"Clear Fork, Inc.",EVB (Canyon Sand Unit) 1644,32.33069,-100.29381,28000,Texas,Nolan
2012,Apache Corporation,SAU 8 #5C,31.46051,-101.63547,601902,Texas,Reagan
2012,J CLEO THOMPSON,Globe 1 #1,31.2893896,-103.3786062,661836,Texas,Reeves
2012,Pioneer Natural Resources,Morgan 28 #8,31.419517,-101.9472515,1640730,Texas,Upton
2012,"Ray Richey Managment Company, Inc.",Cocanougher-Taylor #1H,33.206518,-97.556471,3966480,Texas,Wise
2012,Anadarko Petroleum Corporation,"Harris, Sylvan Gas Unit 5H",32.15424567,-94.51484801,7300752,Texas,Panola
2012,Summit Petroleum LLC,Bettye Jo #3108,31.7477069,-102.1300392,894247,Texas,Midland
2012,SandRidge Energy,Knight #7,32.34195,-102.61027,76386,Texas,Andrews
2012,Interstate Explorations LLC,Knight #1,31.18086,-95.53233,853178,Texas,Houston
2012,Pioneer Natural Resources,Hardin 10A #1,32.17186284,-101.7231214,1351056,Texas,Martin
2012,Pioneer Natural Resources,Hacienda #13,31.40187434,-101.9453832,1262856,Texas,Upton
2012,Anadarko Petroleum Corporation,Wilson 34-159 1H,31.4786913,-103.3274729,1243754,Texas,Ward
2012,Interstate Explorations LLC,Smith #1,31.2156,-95.55507,810865,Texas,Houston
2012,"CrownQuest Operating, LLC",Cravens 35A #2,32.11364,-101.67595,1065750,Texas,Howard
2012,J CLEO THOMPSON,Apollo 2 #3,31.2892321,-103.4047554,606438,Texas,Reeves
2012,"Holmes Exploration, LLC",Trammell 1H,36.028177,-100.932789,1663232,Texas,Roberts
2012,Seaboard Operating Co.,Quito SW Unit 702,31.55205,-103.38146,0,Texas,Ward
2012,ConocoPhillips Company/Burlington Resources,University NG 5191  (CP5 3001H),31.067784,-101.782975,6106552,Texas,Crockett
2012,Pioneer Natural Resources,Parmer 1-317 #1,32.56249426,-102.3872235,1355466,Texas,Gaines
2012,"Nadel and Gussman Permian, LLC",Red Devil 22 #3,31.8622777,-101.3099,803586,Texas,Glasscock
2012,Crimson Exploration Oper. Inc.,A Yates #1H,30.780822,-96.096544,2940336,Texas,Madison
2012,Devon Energy Production Company L. P.,J.P. Meek 2-69,35.38204,-100.21468,627888,Texas,Hemphill
2012,Interstate Explorations LLC,Worley #1,31.20658,-95.63593,777859,Texas,Houston
2012,Pioneer Natural Resources,Jim Tom 32 #2,32.11041494,-101.7283462,1430688,Texas,Martin
2012,Partee Drilling Inc,Walleye 1002,32.3505,-101.4511,712236,Texas,Howard
2012,Pioneer Natural Resources,Martin 4 #3,32.25394648,-102.0331517,1418340,Texas,Martin
2012,Pioneer Natural Resources,Welch C #7,31.94211523,-101.9683045,1245686,Texas,Midland
2012,"P.O.&G. Operating, LLC",Katherine #1,31.343096,-102.9140332,71778,Texas,Ward
2012,Shell Oil Company affiliate,Johnson C26-22 LOV 1H,31.873281,-103.473836,9922710,Texas,Loving
2012,Occidental Oil and Gas,South Curtis Ranch #215,32.088936,-102.095267,874207,Texas,Martin
2012,Chevron USA Inc.,Harrell Jeanette 08H,32.10433889,-94.47046667,3168137,Texas,Panola
2012,"Ray Richey Managment Company, Inc.",Taylor 'F' #7H,33.196604,-97.556836,40354444,Texas,Wise
2012,Anadarko Petroleum Corporation,"Harris, Sylvan Gas Unit 4H",32.15427261,-94.51485445,2362950,Texas,Panola
2012,Pioneer Natural Resources,BRUNS 01 02H,29.004842,-97.604453,3909192,Texas,DeWitt
2012,Pioneer Natural Resources,BRUNS 01 03H,29.004822,-97.604412,3939306,Texas,DeWitt
2012,Pioneer Natural Resources,BRUNS 01 04H,29.004802,-97.604371,3879120,Texas,DeWitt
2012,"EOG Resources, Inc.",Boyles Unit #3H,29.337528,-97.388253,3686676,Texas,Gonzales
2012,"EOG Resources, Inc.",Munson #1001H,31.103515,-101.032917,9860298,Texas,Irion
2012,"Holmes Exploration, LLC",Tucker 70-2H,36.056448,-100.338032,1826534,Texas,Lipscomb
2012,Pioneer Natural Resources,XBC Giddings Estate #1018,31.50786757,-101.9481168,1202796,Texas,Upton
2012,ConocoPhillips Company/Burlington Resources,WN Waddell ET AL 1204,31.5167136,-102.6471625,149729,Texas,Crane
2012,Parallel Petroleum LLC,"Elam, WB 11",32.555314,-102.663933,10571,Texas,Gaines
2012,Parallel Petroleum LLC,"Cothes, C R 1R",32.523781,-102.685758,9563,Texas,Gaines
2012,Endeavor Energy Resources,Johnson 41 #2,32.2656,-101.4346,993614,Texas,Martin
2012,COG Operating LLC,Mabee 239-1402,32.244613,-102.185791,1650600,Texas,Martin
2012,"Midenergy Operating, LLC",Goliath 2007,32.020513,-102.233914,970622,Texas,Midland
2012,"Escondido Resources II, LLC",Gilpin 1H,27.595997,-99.224957,80721,Texas,Webb
2012,Pioneer Natural Resources,Baldwin 7 #1,32.46921217,-101.9760283,1522794,Texas,Martin
2012,Pioneer Natural Resources,ET O Daniel #68,31.9380328,-101.8199692,1415064,Texas,Midland
2012,"Holmes Exploration, LLC",Janice 99-1H,36.158117,-100.843578,1729571,Texas,Ochiltree
2012,"Linn Energy, LLC",Dobson Ranch 40 3H,35.48774,-100.00537,4574821,Texas,Wheeler
2012,ConocoPhillips Company/Burlington Resources,University Andrews 212,32.121392,-102.727222,346320,Texas,Andrews
2012,"MWS Producing, Inc.",Universtiy 22 #4,31.004302,-101.368748,95802,Texas,Crockett
2012,Strat Land Exploration Co,Smith Joe 1,36.20308,-101.1525,147630,Texas,Hansford
2012,"Linn Energy, LLC",Dobson Ranch 40 SL 1H,35.48889,-100.02028,4652041,Texas,Wheeler
2012,"Ray Richey Managment Company, Inc.",Marion Green #4H,33.239558,-97.724655,1957662,Texas,Wise
2012,"Linn Energy, LLC",Miller Spinney 39 SL 6H,35.50084,-100.02217,6082944,Texas,Wheeler
2012,"Linn Energy, LLC",Miller Spinney 39 SL 6H,35.50165,-100.02658,6082944,Texas,Wheeler
2012,COG Operating LLC,University Ruth 423,32.37842,-102.44914,1519980,Texas,Andrews
2012,COBRA OIL & GAS CORPORATION,Hughes 49 #2,32.3687267,-101.6760957,1711006,Texas,Howard
2012,"Linn Energy, LLC",Fryar 4 #4ii,32.33363,-101.56828,705800,Texas,Howard
2012,"CrownQuest Operating, LLC",Low Unit 19 #2,32.21253,-101.88954,1026438,Texas,Martin
2012,Pioneer Natural Resources,Abraxas 27B #2,32.45793279,-101.8208811,1335558,Texas,Martin
2012,Callon Petroleum Operating Company,Neal 321 H,31.299167,-101.897481,9110023,Texas,Upton
2012,Newfield Exploration,Britt Ranch J36 -14H,35.48875,-100.087944,2949298,Texas,Wheeler
2012,COG Operating LLC,Mabee 240A-4205,32.219076,-102.275673,1724268,Texas,Andrews
2012,"Walsh & Watts, Inc.",Boyd 'F' #10,32.8691126,-100.4934911,24108,Texas,Fisher
2012,"Bluestem Energy Holdings, LLC",Brunson #4,31.8550437,-101.7328584,729246,Texas,Glasscock
2012,Pioneer Natural Resources,Bauer #3,32.4989177,-101.9499557,1642494,Texas,Martin
2012,Devon Energy Production Company L. P.,Margaret Young #3,33.088596,-97.624741,9786,Texas,Wise
2012,ConocoPhillips Company/Burlington Resources,WN Waddell ET AL 1905,31.5035065,-102.6601625,39977,Texas,Crane
2012,ConocoPhillips Company/Burlington Resources,GS Andector Unit R-132,32.050406,-102.685289,122536,Texas,Ector
2012,"Bluestem Energy Holdings, LLC",Brunson #6,31.8616397,-101.734902,622107,Texas,Glasscock
2012,"EOG Resources, Inc.",Munson #1003H,31.1035,-101.034644,8315454,Texas,Irion
2012,Pioneer Natural Resources,University 58-16 #4,31.30918181,-101.7535694,1365966,Texas,Reagan
2012,Opal Resources Operating Company,Mary K Shirk #6,31.172922,-102.025835,123,Texas,Upton
2012,"Jetta Operating Company, Inc",Barstow 38 2,31.45244,-103.3782,694659,Texas,Ward
2012,Warren American Oil Company,University 234 #6,30.98801,-101.325971,16855,Texas,Crockett
2012,COBRA OIL & GAS CORPORATION,"Roman ""20"" #2",32.43217,-101.69258,1199902,Texas,Howard
2012,Pioneer Natural Resources,Curtis #2,32.285357,-102.08818,897456,Texas,Martin
2012,Pioneer Natural Resources,Sale Ranch A #18,32.1867577,-101.9350869,1094604,Texas,Martin
2012,"Linn Energy, LLC",Miller Spinney 39 SL 4H,35.478067,-100.04734,6585062,Texas,Wheeler
2012,Texas American Resources Company,Turman 109H,28.654646,-99.043729,4764466,Texas,Frio
2012,Pioneer Natural Resources,Jim Tom 48 #2,32.06658196,-101.7550029,1255842,Texas,Glasscock
2012,"Nadel and Gussman Permian, LLC",Bearkat 20 #3,31.861325,-101.344047,676578,Texas,Glasscock
2012,"Tidal Petroleum, Inc.",Kolar #2H,29.62502,-97.22085,3574726,Texas,Gonzales
2012,Endeavor Energy Resources,Ricker 27 #6,31.3349,-101.3031,1114860,Texas,Reagan
2012,"Texakoma Operating, L.P.",McMordie  84-3,35.854,-100.7059,543412,Texas,Roberts
2012,"Linn Energy, LLC",Thomas W 5 12H,35.53307,-100.12617,4634721,Texas,Wheeler
2012,Shell Oil Company affiliate,Shell Stephens L 1V,33.1681425,-102.0128844,728532,Texas,Lynn
2012,Pioneer Natural Resources,Turner 1206 #6,31.33224922,-101.6562127,1378314,Texas,Reagan
2012,Devon Energy Production Company L. P.,Holt  20-6H,35.35262,-100.0709,8893217,Texas,Wheeler
2012,Pioneer Natural Resources,Brunson 35 #4,31.86644639,-101.7178408,1439844,Texas,Glasscock
2012,"Burk Royalty Co., LTD.",Ulrich #1H,31.1522,-95.4297,526367,Texas,Houston
2012,Murphy Exploration and Production USA,Herbst-May 1H,28.797389,-98.298556,8897440,Texas,Atascosa
2012,Devon Energy Production Company L. P.,University 52-10 2H,31.06531,-101.0169,7399371,Texas,Irion
2012,COG Operating LLC,Sugg 3070 5,31.34123,-100.92704,251034,Texas,Irion
2012,Pioneer Natural Resources,University 7-29 #4,32.38613462,-102.1682342,1117019,Texas,Martin
2012,J CLEO THOMPSON,Cooper 15 #4,31.260246,-103.4209125,515256,Texas,Reeves
2012,"EOG Resources, Inc.",CEI Unit #4H,29.074853,-97.764608,2208234,Texas,Karnes
2012,"Holmes Exploration, LLC",Sunset Rose 904-1HM,36.346094,-100.427296,1640182,Texas,Lipscomb
2012,"CrownQuest Operating, LLC",Guitar 5 #4,32.28583,-101.79816,1120434,Texas,Martin
2012,"Linn Energy, LLC",Robbie 24 BB,32.0352177,-102.1708013,1085868,Texas,Midland
2012,"Parsley Energy Operations, LLC",Dusek 7,31.63123,-102.01689,2360946,Texas,Upton
2012,ConocoPhillips Company/Burlington Resources,Hogan 10,31.773881,-102.377247,570993,Texas,Ector
2012,J CLEO THOMPSON,Abel #9,32.2624519,-101.9993568,214956,Texas,Glasscock
2012,"CrownQuest Operating, LLC",Walters 11 #1,31.82837,-101.59051,1067220,Texas,Glasscock
2012,"Linn Energy, LLC",Gaskins A 38J,32.30118119,-101.846159,1110299,Texas,Martin
2012,"CrownQuest Operating, LLC",Judson 21 #1,32.34035,-101.89008,1021398,Texas,Martin
2012,Mohican Operating,BHE 13,27.75079,-98.98311,232344,Texas,Webb
2012,Parallel Petroleum LLC,"Thompson ""B"" 20",32.531208,-102.67667,11066,Texas,Gaines
2012,Parallel Petroleum LLC,CSAU 701,32.553353,-102.631967,11474,Texas,Gaines
2012,Pioneer Natural Resources,University 6-43 #9,32.45464966,-102.1808278,1412709,Texas,Martin
2012,Pioneer Natural Resources,Mary E Turner D #8,31.91748101,-101.9030094,975828,Texas,Midland
2012,Pioneer Natural Resources,Morgan 28 #9,31.4178715,-101.9417702,1293852,Texas,Upton
2012,Interstate Explorations LLC,Knight #1,31.18086,-95.53233,5281155,Texas,Houston
2012,Pioneer Natural Resources,Foreman 32 #4,32.30721938,-101.9061474,1612800,Texas,Martin
2012,Pioneer Natural Resources,University 10-17 #1H,31.26584,-101.498,8434204,Texas,Reagan
2012,Sanchez Oil & Gas Corporation,Mark & Sandra 2H,28.42562,-99.56156,3192075,Texas,Zavala
2012,ConocoPhillips Company/Burlington Resources,Joe Mahan Unit B 1,28.676336,-98.194377,2985267,Texas,Live Oak
2012,Anadarko Petroleum Corporation,Beinhorn Ranch 26H,28.31617444,-99.69917481,5634846,Texas,Dimmit
2012,"Parsley Energy Operations, LLC",Hoelscher 46 #1,31.749476,-101.592523,2277366,Texas,Glasscock
2012,COBRA OIL & GAS CORPORATION,Nichols 17 #2,32.39929,-101.67712,1524112,Texas,Howard
2012,Pioneer Natural Resources,Dawkins #4,32.29543306,-101.8896504,1041390,Texas,Martin
2012,Crimson Exploration Oper. Inc.,Payne Unit A #1H,30.886714,-96.074258,3440304,Texas,Madison
2012,"Linn Energy, LLC",Robbie 24 GG,32.015904,-102.101379,1155378,Texas,Midland
2012,Pioneer Natural Resources,Welch C #8,31.94647078,-101.9765739,1306341,Texas,Midland
2012,"Holmes Exploration, LLC",Sidney 123-3H,36.1143128,-100.9025764,1715718,Texas,Ochiltree
2012,J CLEO THOMPSON,Chevron Minerals 17 #2,31.2678047,-103.3536373,715218,Texas,Reeves
2012,Sanchez Oil & Gas Corporation,Mark & Sandra 2H,28.7074,-99.92190659,3192075,Texas,Zavala
2012,Range Resources Corporation,Edmondson A 4219,32,-101,776294,Texas,Glasscock
2012,Energen Resources Corporation,Steelhead 33-72/Well No. 2,31.65628,-103.55571,1130528,Texas,Loving
2012,Eagle Energy Acquisitions LP,Mabee 2 2A,32,-102,706976,Texas,Martin
2012,SandRidge Energy,Munger Nix A LZS #67,32.2806447,-102.7238131,153216,Texas,Andrews
2012,Devon Energy Production Company L. P.,H Mueller 18A #1H,28.98947,-97.71219,4184342,Texas,DeWitt
2012,BHP Billiton Petroleum,H Mueller 18A #1H,28.98921333,-97.7119175,4184342,Texas,DeWitt
2012,BHP Billiton Petroleum,H Mueller 18A #1H,28.989213,-97.711918,4184342,Texas,DeWitt
2012,"Alta Mesa Services, LP",Peters Cole #1,28.918731,-96.727733,273662,Texas,Jackson
2012,"Holmes Exploration, LLC",Katherine Blau 941-2HM,36.347666,-100.499752,1797241,Texas,Lipscomb
2012,Pioneer Natural Resources,Ellis 36A #5,32.31330524,-101.7560459,1595034,Texas,Martin
2012,J CLEO THOMPSON,Walker 28 #3,31.2418321,-103.4389367,578340,Texas,Reeves
2012,"S. B. STREET OPERATING, INC.",MK GRAHAM 9853,33.05916,-99.03567,19152,Texas,Throckmorton
2012,Pioneer Natural Resources,University 3-13 #1,31.2733603,-101.8699418,1390704,Texas,Upton
2012,Devon Energy Production Company L. P.,Colonel Drake 24 2H,31.62949,-103.428574,1503480,Texas,Ward
2012,"Linn Energy, LLC",Huff Bros 2 3H,35.51844,-100.11329,6706980,Texas,Wheeler
2012,"LUCA RESOURCES GROUP, LLC",LUCA BARFIELD  2,27.39841,-98.70563,171891,Texas,Duval
2012,ConocoPhillips Company/Burlington Resources,Hogan 11,31.775445,-102.384677,692925,Texas,Ector
2012,"Linn Energy, LLC",Peugh 3-3J,32.39346,-101.84056,736859,Texas,Martin
2012,Pioneer Natural Resources,Donald L Hutt Fee 18,31.84195373,-101.9293412,1273613,Texas,Midland
2012,HighMount Exploration & Production,Foster 6901,30.83738,-100.84863,1473780,Texas,Schleicher
2012,Pioneer Natural Resources,XBC Giddings Estate #3024,31.4702983,-102.0217954,1226610,Texas,Upton
2012,"Linn Energy, LLC",Thomas 3 16H,35.51833,-100.11333,4628145,Texas,Wheeler
2012,Pioneer Natural Resources,University 10-17 #2H,31.265822,-101.496,8287440,Texas,Reagan
2012,Anadarko Petroleum Corporation,"Lloyd, C.E. ETAL Gas Unit 5 6H",32.18686,-94.843811,9923731,Texas,Rusk
2012,SandRidge Energy,University 16-18,32.16296,-102.68925,68460,Texas,Andrews
2012,Bluescape Resources,HBR 7HA,28.872932,-99.262519,4677750,Texas,Frio
2012,"Nadel and Gussman Permian, LLC",Bearkat 20 #4,31.854358,-101.341987,614838,Texas,Glasscock
2012,"Walsh & Watts, Inc.",Kyle 'B' #5,31.9226816,-103.6087487,59598,Texas,Loving
2012,"Aztec Drilling & Operating, LLC",Aztec-Wilson P Unit 2 #8B,29.2076962,-99.089872,17430,Texas,Medina
2012,"Aztec Drilling & Operating, LLC",Aztec-Wilson P Unit 2 #9B,29.2076941,-99.0908125,16044,Texas,Medina
2012,"Aztec Drilling & Operating, LLC",Aztec-Wilson P Unit 2 #10B,29.2077691,-99.0917521,16464,Texas,Medina
2012,"Aztec Drilling & Operating, LLC",Aztec-Wilson P Unit 2 #7B,29.2076982,-99.0889315,17094,Texas,Medina
2012,"Aztec Drilling & Operating, LLC",Aztec-Wilson P Unit 2 #6B,29.2077002,-99.087991,17094,Texas,Medina
2012,COG Operating LLC,Williams Pearl A 5602,31.10177,-100.71293,2447911,Texas,Irion
2012,Endeavor Energy Resources,Shaw 13 #3,32.2122,-101.472,979776,Texas,Midland
2012,"Walsh Petroleum, Inc.",Dupree #5,33.195,-102.881,95550,Texas,Yokaum
2012,Anadarko Petroleum Corporation,"Lloyd, C.E. ETAL Gas Unit 5 7H",32.18948,-94.847773,5675598,Texas,Rusk
2012,Parallel Petroleum LLC,Cothes 'A' 3,32.519008,-102.681953,11017,Texas,Andrews
2012,Devon Energy Production Company L. P.,Cole Trusts `576` 2,33.17606,-97.25104,1453872,Texas,Denton
2012,Parallel Petroleum LLC,"Elam, WB 12R",32.555314,-102.663933,11267,Texas,Gaines
2012,Pioneer Natural Resources,Odom 11 #2,31.83481479,-101.5968759,1463952,Texas,Glasscock
2012,"SV Energy Company, LLC",Peeler 5,28.58395,-98.43498,106848,Texas,Mc Mullen
2012,"Bluestem Energy Holdings, LLC",Evans #8,31.9700599,-101.7860278,788088,Texas,Midland
2012,Endeavor Energy Resources,T & P Land Trust C #1905,31.4158,-102.025,947482,Texas,Midland
2012,"Linn Energy, LLC",Thomas 3 14H,35.51805,-100.14321,4229749,Texas,Wheeler
2012,"Linn Energy, LLC",Thomas 3 15H,35.534147,-100.166473,4561532,Texas,Wheeler
2012,Warren American Oil Company,University 233 #3,30.002447,-101.368806,38010,Texas,Crockett
2012,Warren American Oil Company,University 236 #11,30.985748,-101.419694,71988,Texas,Crockett
2012,"EOG Resources, Inc.",Baker Deforest Unit #2H,29.303797,-97.380322,5127696,Texas,Gonzales
2012,J CLEO THOMPSON,Eagle State 28 #2,31.383962,-103.419124,794514,Texas,Reeves
2012,Bluescape Resources,HBR 8HA,28.872858,-99.262559,1956685,Texas,Frio
2012,COBRA OIL & GAS CORPORATION,"Grantham ""13"" #3",32.41895,-101.65162,1467154,Texas,Howard
2012,Pioneer Natural Resources,Morgan 28 #10,31.4259735,-101.9396607,1294986,Texas,Upton
2012,COG Operating LLC,TXL 41 4,31.49766359,-102.1754139,1461597,Texas,Midland
2012,"Custer & Wright Operating, Inc",GLF #1,33.0939463,-101.6997966,63196,Texas,Lynn
2012,Pioneer Natural Resources,University 7-39A #8,32.35059118,-102.2055499,1235719,Texas,Martin
2012,Bluescape Resources,HBR 2HA,28.872896,-99.262538,4772250,Texas,Frio
2012,ConocoPhillips Company/Burlington Resources,Embar B-70,32.094936,-102.719047,188538,Texas,Andrews
2012,SandRidge Energy,Elk 2,32.43301,-102.64729,123018,Texas,Andrews
2012,Approach Resources,University 42 101H,30.9687,-101.2118,10825836,Texas,Crockett
2012,Devon Energy Production Company L. P.,Peggy Smith GU A 5,33.153679,-97.370389,1092183,Texas,Denton
2012,"Piedra Operating, LLC",Top Chico 1,32.3206793,-101.7947284,770006,Texas,Martin
2012,Endeavor Energy Resources,Blagrave 54-59 #31,32.2318,-101.4545,936360,Texas,Martin
2012,Endeavor Energy Resources,Ricker Rupert PJ # 6,31.325,-101.3042,1045342,Texas,Reagan
2012,"Parsley Energy Operations, LLC",Dusek 5,31.624025,-102.014372,1649130,Texas,Upton
2012,ConocoPhillips Company/Burlington Resources,University Andrews 209,32.13008306,-102.724881,268816,Texas,Andrews
2012,Devon Energy Production Company L. P.,Peggy Smith B 11,33.15898,-97.378447,1229534,Texas,Denton
2012,Pioneer Natural Resources,McDaniel 34 #3,31.77040603,-101.5976196,1386588,Texas,Glasscock
2012,"Laredo Petroleum, Inc.",LPI Hoch 29 #2,31.7968916,-101.5277697,1910160,Texas,Glasscock
2012,"EOG Resources, Inc.",Baker Deforest Unit #12H,29.303697,-97.380431,5016816,Texas,Gonzales
2012,"EOG Resources, Inc.",Hansen Kullin Unit #5H,29.302639,-97.427975,2651880,Texas,Gonzales
2012,COG Operating LLC,Farmar 2 5,31.32792,-100.97179,236964,Texas,Irion
2012,COG Operating LLC,Sugg 6 3,31.31864,-100.94951,736176,Texas,Irion
2012,Pioneer Natural Resources,Donald L Hutt Fee #24,31.84701978,-101.9400473,1257186,Texas,Midland
2012,"Walsh Petroleum, Inc.",Lewis 424 #2,33.1877,-102.876,56070,Texas,Yokaum
2012,Summit Petroleum LLC,Shelby Fayth 3710,31.7474752,-102.1200481,1166783,Texas,Midland
2012,MEWBOURNE OIL COMPANY,University `B11-7` 1,32.14475,-102.82665,65965,Texas,Andrews
2012,ConocoPhillips Company/Burlington Resources,WN Waddell ET AL 1204,31.5167136,-102.6471625,149729,Texas,Crane
2012,"BlackBrush O & G, Inc.",San Pedro Ranch 1456H,28.23405,-99.91303,0,Texas,Dimmit
2012,ConocoPhillips Company/Burlington Resources,Gandu Z-125,32.043131,-102.737994,159601,Texas,Ector
2012,"EOG Resources, Inc.",Thomas Crozier Unit #1H,29.140517,-97.6427,5377596,Texas,Gonzales
2012,Pioneer Natural Resources,Sale Ranch G #8,32.22826349,-101.9840152,213783,Texas,Martin
2012,Pioneer Natural Resources,Sale Ranch G #8,32.22826349,-101.9840152,218274,Texas,Martin
2012,Endeavor Energy Resources,Fulton 36 #2,32.1936,-101.4258,922954,Texas,Martin
2012,Devon Energy Production Company L. P.,Glenn P Shoop C 5,33.116522,-97.396939,1017029,Texas,Wise
2012,Anadarko Petroleum Corporation,"Kyle, J.R. 'A' 52HH",32.09095154,-94.28526972,7488366,Texas,Panola
2012,Anadarko Petroleum Corporation,"Kyle, J.R. 'A' 16HH",32.09159912,-94.29183388,7488366,Texas,Panola
2012,Interstate Explorations LLC,Worley #1,31.2065783,-95.6359347,3049788,Texas,Houston
2012,Energen Resources Corporation,West Fuhrman-Mascho Unit/Well No. 565 (PA),32.23662,-102.68393,28728,Texas,Andrews
2012,"Newark E&P Operating, LLC",Thoroughbred 2H,32.79561,-97.02023,10081596,Texas,Dallas
2012,Rosetta Resources,Briscoe Ranch EF 2,28.2608342,-99.8093842,2221017,Texas,Dimmit
2012,Rosetta Resources,Briscoe Ranch EF 3,28.2601732,-99.8104385,2265859,Texas,Dimmit
2012,Rosetta Resources,Briscoe Ranch EF 4,28.2595087,-99.8114945,2202918,Texas,Dimmit
2012,SM Energy,Briscoe Catarina East GU1 3H,28.2366117,-99.8158514,7854714,Texas,Webb
2012,"Linn Energy, LLC",Leigh 22G,31.886605,-102.2980433,947058,Texas,Ector
2012,Bluescape Resources,HBR 3HA,28.872819,-99.262578,5215770,Texas,Frio
2012,"EOG Resources, Inc.",Mayer SL #5013LH,31.1546469,-101.1865306,7475588,Texas,Irion
2012,"CrownQuest Operating, LLC",SAM 17 #1,32.30735,-101.93699,1088094,Texas,Martin
2012,Pioneer Natural Resources,Wilson A #3,31.89723842,-102.0741027,1268568,Texas,Midland
2012,Devon Energy Production Company L. P.,Shoop A 9,33.12126,-97.403029,922036,Texas,Wise
2012,ConocoPhillips Company/Burlington Resources,WN WADDELL ET AL 1957,31.4977541,-102.6558784,57452,Texas,Crane
2012,ConocoPhillips Company/Burlington Resources,WN WADDELL ET AL 1970,31.4951954,-102.6591876,49482,Texas,Crane
2012,"Arkland Producing Co., Inc.",Barfield -5- 1,31.8410261,-101.6520719,568628,Texas,Glasscock
2012,Pioneer Natural Resources,Winslow B #4,32.03228194,-101.686272,1581376,Texas,Glasscock
2012,SandRidge Energy,WD Johnson 16S-2,31.84111,-103.54967,94556,Texas,Loving
2012,Pioneer Natural Resources,McCampbell 21 #2,32.30229652,-102.0080708,1090782,Texas,Martin
2012,"Price Operating, LLC",Tumlinson Landcastle #1,30.7615964,-97.0203175,18900,Texas,Milam
2012,"Price Operating, LLC",Tumlinson Landcastle #2,30.7624205,-97.0202995,18900,Texas,Milam
2012,"Price Operating, LLC",Tumlinson Landcastle #3,30.7634385,-97.0202831,18900,Texas,Milam
2012,"Price Operating, LLC",Tumlinson Landcastle #4,30.7640708,-97.0202656,18900,Texas,Milam
2012,"Price Operating, LLC",Tumlinson Landcastle #5,30.7648955,-97.0202484,18900,Texas,Milam
2012,Devon Energy Production Company L. P.,Virginia City Cole C 1H,31.8347,-101.0854,8369265,Texas,Sterling
2012,Pioneer Natural Resources,XBC Giddings Estate #4045,31.46375573,-101.9424484,1304184,Texas,Upton
2012,"JAMEX, Inc.",Cox 1,32.361528,-95.505596,87777,Texas,Van Zandt
2012,Devon Energy Production Company L. P.,Glenn P Shoop 5,33.123941,-97.400452,1014225,Texas,Wise
2012,COG Operating LLC,Miranda 1777,32.34074,-102.44171,1468664,Texas,Andrews
2012,"Linn Energy, LLC",Tyler 3705,31.83618,-102.31231,1198722,Texas,Ector
2012,"Huntington Energy, L.L.C.",Courson 3H,36.14576,-100.78028,1186668,Texas,Ochiltree
2012,Devon Energy Production Company L. P.,Glenn P Shoop E 8,33.123855,-97.396617,1017725,Texas,Wise
2012,Anadarko Petroleum Corporation,"Kyle, J.R. 'A' 53HH",32.09095861,-94.28522167,8951962,Texas,Panola
2012,ConocoPhillips Company/Burlington Resources,Schendel Unit A-189 #2,28.955781,-97.721778,4302627,Texas,Karnes
2012,SM Energy,Horizon Properties 1H,30.812356,-95.334049,2560158,Texas,Walker
2012,COG Operating LLC,Mabee 240A-2001,32.244482,-102.283108,1412124,Texas,Andrews
2012,SandRidge Energy,University A 4318-1,32.4328,-102.65612,83034,Texas,Andrews
2012,"Cazar Energy, Inc.",Franke #1,31.38,-99.82,29946,Texas,Concho
2012,SM Energy,Briscoe Catarina East GU1 2H,28.23658,-99.815901,7854714,Texas,Webb
2012,COBRA OIL & GAS CORPORATION,"Todd ""17"" #2",32.38207,-101.63147,1435905,Texas,Howard
2012,"Hannathon Petroleum, LLC",Reagan 7 #1,32.25214,-101.36515,2841706,Texas,Howard
2012,"CrownQuest Operating, LLC",Schenecker 18A #2,32.17046,-102.03802,737226,Texas,Martin
2012,Energen Resources Corporation,Womack -D-/Well No. 3,32.44336,-101.05976,51660,Texas,Mitchell
2012,Devon Energy Production Company L. P.,CHAMBERS 2-5,35.5311,-100.382,321054,Texas,Roberts
2012,SandRidge Energy,Sun 28,32.2578,-102.6781,131247,Texas,Andrews
2012,"Estancia Oil & Gas, LLC",MSW Brown-Portefield #2,32.868484,-101.608516,20370,Texas,Borden
2012,BHP Billiton Petroleum,University 51-9 1H,30.96095861,-101.4325856,10438030,Texas,Crockett
2012,Endeavor Energy Resources,MWS 63 #3,32.245,-101.4603,866842,Texas,Martin
2012,Pioneer Natural Resources,Welch C #6,31.94707221,-101.9699278,1152100,Texas,Midland
2012,Energen Resources Corporation,Womack -D-/Well No. 4,32.44416,-101.06459,56154,Texas,Mitchell
2012,"Walsh Petroleum, Inc.",Crump 424 #2,33.1841,-102.876,55944,Texas,Yoakum
2012,Anadarko Petroleum Corporation,"Kyle, J.R. 'A' 51HH",32.09162954,-94.29180143,7734174,Texas,Panola
2012,Pioneer Natural Resources,University 6-39 #10,32.46130687,-102.236406,1216948,Texas,Andrews
2012,Empresa Energy LLC,Murphy 61 1H,33.47394,-102.22511,4400256,Texas,Hockley
2012,"EOG Resources, Inc.",Mayer SL #5013UH,31.1546458,-101.1866586,8907402,Texas,Irion
2012,"Bluestem Energy Holdings, LLC",Evans D-1,32.05573,-102.15048,973198,Texas,Midland
2012,BHP Billiton Petroleum,Thornton Trust 4-60 #2H,31.46813676,-103.5799317,3670787,Texas,Reeves County
2012,Walter Exploration Company,Walter Smith Unit #20,33.0408398,-100.1977431,19530,Texas,Stonewall
2012,COG Operating LLC,TXL West 41 7,31.46566,-102.22491,1476678,Texas,Upton
2012,"P.O.&G. Operating, LLC",Landon #2,31.3518155,-102.8793637,88662,Texas,Ward
2012,Layline Petroleum,I A B Northeast Unit 3202,32.00855,-100.5223,75852,Texas,Coke
2012,Energen Resources Corporation,Lavaca -38-/Well No. 4,31.66596,-101.44317,611688,Texas,Glasscock
2012,"EOG Resources, Inc.",Hansen Kullin Unit #6H,29.290214,-97.425242,4596942,Texas,Gonzales
2012,Forest Oil Corporation,Sample Vana 1H,29.38873,-97.58881,2465988,Texas,Gonzales
2012,Endeavor Energy Resources,Nail 1 #2,32.073,-101.5927,990968,Texas,Martin
2012,"CrownQuest Operating, LLC",Wilkinson Ranch #12,32.30834,-101.67677,1018500,Texas,Martin
2012,"Linn Energy, LLC",Nobles #3314,31.992105,-102.220525,996912,Texas,Midland
2012,"Escondido Resources II, LLC",Augusta-Kenton 8H,27.523315,-99.251116,97794,Texas,Webb
2012,SandRidge Energy,University E #4,32.41809,-102.65449,141979,Texas,Andrews
2012,Pioneer Natural Resources,Hancock A #4,32.0585859,-101.7386988,1536444,Texas,Glasscock
2012,Devon Energy Production Company L. P.,Haley 120-1H,35.8521725,-100.292194,6475497,Texas,Hemphill
2012,Pioneer Natural Resources,Schneider A #1,32.50932629,-101.99717,1480836,Texas,Martin
2012,Pioneer Natural Resources,University 10-20 #6H,31.264881,-101.499,8871261,Texas,Reagan
2012,"Escondido Resources II, LLC",Augusta-Kenton 7H,27.523302,-99.281109,97147,Texas,Webb
2012,SM Energy,Briscoe Catarina East GU1 1H,28.2365448,-99.8159521,7524972,Texas,Webb
2012,"Bluestem Energy Holdings, LLC",Evans #6,31.9850306,-101.7768765,882252,Texas,Midland
2012,"Texakoma Operating, L.P.",MCMORDIE 23 1,35.92178,-100.66533,404979,Texas,Roberts
2012,Devon Energy Production Company L. P.,WCCO 4 - ADA MORRIS 15,33.103994,-97.477852,1082586,Texas,Wise
2012,"Linn Energy, LLC",Clear Creek A 37BB,32.3112212,-101.8311006,1056468,Texas,Martin
2012,"Parsley Energy Operations, LLC",Shackelford 7 #10,31.63747124,-101.9245809,1920643,Texas,Upton
2012,Anadarko Petroleum Corporation,"Kyle, J.R. 'A' 15HH",32.09096553,-94.28517413,8944916,Texas,Panola
2012,Apache Corporation,Three Bar Shallow Unit 101H,32.142,-102.823,2622511,Texas,Andrews
2012,COG Operating LLC,University Frances 4010,32.39621,-102.45215,1442683,Texas,Andrews
2012,SandRidge Energy,CC Lockhart & Brown B 13,32.23303,-102.75477,87721,Texas,Andrews
2012,Energen Resources Corporation,Glass/Well No. 9,31.66468,-101.37165,633528,Texas,Glasscock
2012,Devon Energy Production Company L. P.,Dudley Taylor 1H,32.6833833,-94.3628528,3236956,Texas,Harrison
2012,COBRA OIL & GAS CORPORATION,Nichols '15' #4,32.39561,-101.67989,1538293,Texas,Howard
2012,COG Operating LLC,Pfluger M 306,31.51458,-101.25617,89082,Texas,Irion
2012,Plains Exploration & Production Company,Love #5H,28.85853122,-97.92637372,3975980,Texas,Karnes County
2012,Plains Exploration & Production Company,Love 6H,28.85844873,-97.92637739,3823827,Texas,Karnes County
2012,Occidental Oil and Gas,MABEE RANCH 139 812,32.180264,-102.167317,545741,Texas,Martin
2012,Energen Resources Corporation,Brennand 'A'/Well No. 6,32.40989,-101.08521,52920,Texas,Mitchell
2012,Anadarko Petroleum Corporation,Monroe 34-221/212 Unit 1H,31.5762884,-103.3540518,1240023,Texas,Ward
2012,Energen Resources Corporation,Glass -A-/Well No. 9,31.69192,-101.38067,650496,Texas,Glasscock
2012,Energen Resources Corporation,Daniel -2-/Well No. 2,31.72913,-101.55882,735084,Texas,Glasscock
2012,"Holmes Exploration, LLC",Spanky 2-2H,34.35652,-99.627703,1997620,Texas,Hardeman
2012,Devon Energy Production Company L. P.,Zybach 26-7H,35.6331,-100.242053,7121911,Texas,Hemphill
2012,"Linn Energy, LLC",Talbot 3 Unit 3C,32.203867,-101.3343,734202,Texas,Howard
2012,"Holmes Exploration, LLC",Dallas 1032-2HM,36.37694444,-100.4461667,1739186,Texas,Lipscomb
2012,Pioneer Natural Resources,Madison 30 #1,32.30954022,-101.9240682,1122606,Texas,Martin
2012,Energen Resources Corporation,Brennand -B-/Well No. 2,32.43661,-101.06429,42752,Texas,Mitchell
2012,Devon Energy Production Company L. P.,Earp-Estes (SA) B 1H ?,32.98464,-97.62113,6227033,Texas,Parker
2012,Devon Energy Production Company L. P.,Earp-Estes (SA) 1H,32.98464,-97.62112,374405,Texas,Parker
2012,Endeavor Energy Resources,Ricker Rupert P AB #4,31.32,-101.3021,935176,Texas,Reagan
2012,ConocoPhillips Company/Burlington Resources,University NG 5021H,31.117039,-101.858739,6205608,Texas,Upton
2012,SandRidge Energy,Mobil Jones 3,32.25545,-102.667006,89019,Texas,Andrews
2012,SandRidge Energy,Wind River 15,32.2229,-102.7204,49560,Texas,Andrews
2012,"Juno Operating Company II, LLC","Caddell-1072, etal No. 7201",33.520424,-101.47695,86405,Texas,Crosby
2012,"Carrizo Oil & Gas, Inc.",Lazy Seven Ranch 10H,28.49574,-98.829984,6549621,Texas,La Salle
2012,Pioneer Natural Resources,Yates 82 #2,32.52210268,-101.9265905,1575324,Texas,Martin
2012,Pioneer Natural Resources,Chandler 38 #2,32.2149083,-101.7127154,1443953,Texas,Martin
2012,Endeavor Energy Resources,Hoopsnake 28 A #2,32.0714,-101.4252,1143638,Texas,Martin
2012,Energen Resources Corporation,North Westbrook Unit/Well No. 2210 (PA),32.44065,-101.04603,30870,Texas,Mitchell
2012,Valence Operating Company,Stewart #1,31.55261,-94.328714,523989,Texas,Nacogdoches
2012,"Holmes Exploration, LLC",Pedro 850-2HM,36.31891667,-100.5479722,2177517,Texas,Ochiltree
2012,Devon Energy Production Company L. P.,Dennard #15,32.14345,-94.2892342,95832,Texas,Panola
2012,Steller Energy & Investment Corp,Eleanor  Hoppe #6,32.00718,-101.2068,1258362,Texas,Sterling
2012,COG Operating LLC,TXL 15 3,31.56005019,-102.1705086,1340188.971,Texas,Upton
2012,ConocoPhillips Company/Burlington Resources,Bum A 14,32.098678,-102.721994,396624,Texas,Andrews
2012,SandRidge Energy,Thornberry 4W-23,32.27115,-102.72623,56312,Texas,Andrews
2012,"CrownQuest Operating, LLC",Smith 7 #3,32.03955,-101.73769,1187424,Texas,Martin
2012,"Carrizo Oil & Gas, Inc.",Lazy Seven Ranch 11H,28.495649,-98.829919,6822376,Texas,La Salle
2012,"Carrizo Oil & Gas, Inc.",Lazy Seven Ranch 12H,28.495607,-98.829919,6767678,Texas,La Salle
2012,Anadarko Petroleum Corporation,APC Fee 1-40 3H,31.6704926,-103.4540464,1474376,Texas,Loving
2012,"Linn Energy, LLC",Clear Creek A 37D,32.31078,-101.84122,304164,Texas,Martin
2012,"Jilpetco, Inc.",WWJD #1,30.8886114,-102.1965369,13356,Texas,Pecos
2012,"Jilpetco, Inc.",WWJD #4,30.8844691,-102.1975275,12222,Texas,Pecos
2012,"Jilpetco, Inc.",WWJD #B-1,30.8846478,-102.2096759,12936,Texas,Pecos
2012,"Jilpetco, Inc.",WWJD #7,30.8806985,-102.2058977,13524,Texas,Pecos
2012,Pioneer Natural Resources,University 58-19A #5,31.3165941,-101.6874528,1225292,Texas,Reagan
2012,Devon Energy Production Company L. P.,Flowers C  8-6,35.5140932,-100.3634668,813692,Texas,Roberts
2012,Devon Energy Production Company L. P.,JV Wilson Trust 146 1H,31.511253,-103.242481,1973078,Texas,Ward
2012,"Walsh Petroleum, Inc.",Dickinson #4,33.1442,-102.963,145908,Texas,Yoakum
2012,Energen Resources Corporation,Block 10 Fuhrman-Mascho Unit/Well No. 1030,32.17961,-102.68915,14322,Texas,Andrews
2012,Approach Resources,Pangea West 6507H,31.0388,-101.5062,10325364,Texas,Crockett
2012,Pioneer Natural Resources,Weyman 22B #3,31.88615113,-101.7278196,1378050,Texas,Glasscock
2012,COG Operating LLC,Mayse 3068 11,31.34643,-100.91228,661164,Texas,Irion
2012,Anadarko Petroleum Corporation,APC Fee 1-40 4H,31.6646394,-103.4493272,1541639,Texas,Loving
2012,Pioneer Natural Resources,Glass 7 #13,32.19612487,-102.054548,1290568,Texas,Martin
2012,Energen Resources Corporation,West Fuhrman-Mascho Unit/Well No. 412 (PA),32.22476,-102.71404,23520,Texas,Andrews
2012,BHP Billiton Petroleum,WK Ace Unit 1-1H,28.363383,-98.981922,2675610,Texas,La Salle
2012,Endeavor Energy Resources,Hill 29-20 #1H,31.92293,-102.11047,868480,Texas,Martin
2012,Anadarko Petroleum Corporation,"Christian, Alice Estate - A-  GU 31H",32.297416,-94.816899,9649331,Texas,Rusk
2012,Occidental Oil and Gas,Mustang 3412,32.246361,-102.246361,960581,Texas,Andrews
2012,Anadarko Petroleum Corporation,Mildred Crnkovic H-1,30.61572,-96.60962,1154644,Texas,Burleson
2012,ConocoPhillips Company/Burlington Resources,W N Waddell ET AL 881,31.4862172,-102.6809595,43504,Texas,Crane
2012,ConocoPhillips Company/Burlington Resources,Blair Unit A 1,29.072772,-97.637139,3520916,Texas,De Witt
2012,"CrownQuest Operating, LLC",Schenecker 24A #3,32.15339,-102.02677,1042482,Texas,Martin
2012,"Linn Energy, LLC",Nichols 49P,32.36782,-101.66697,932976,Texas,Howard
2012,Pioneer Natural Resources,Reese #4,32.17429675,-101.9214392,191058,Texas,Martin
2012,"Parsley Energy Operations, LLC",Dusek 45 #10,31.656205,-101.994478,1751694,Texas,Midland
2012,Energen Resources Corporation,Womack -A-/Well No. 1,32.45585,-101.05526,67175,Texas,Mitchell
2012,Pioneer Natural Resources,University 10-14 #5H,31.28026213,-101.5478916,8183690,Texas,Reagan
2012,Pioneer Natural Resources,University 10-3 #4H,31.280656,-101.518423,8326415,Texas,Reagan
2012,ConocoPhillips Company/Burlington Resources,University NG 5021H,31.117039,-101.858739,6205608,Texas,Upton
2012,SandRidge Energy,CC Sentry #6,32.2350526,-102.7450174,76067,Texas,Andrews
2012,SandRidge Energy,Knight 18,32.2352103,-102.7402667,141303,Texas,Andrews
2012,La Vernia Oil,Alfred Doege,29.3859864,-98.1141231,20000,Texas,Guadalupe
2012,BHP Billiton Petroleum,STS A Kennedy State Unit 1-1H,28.216614,-98.848783,3010518,Texas,La Salle
2012,Energen Resources Corporation,Poor Farm -C-/Well No. 4,32.41883,-101.08552,52704,Texas,Mitchell
2012,"Holmes Exploration, LLC",Shooter 916-2HM,36.333414,-100.652216,1560551,Texas,Ochiltree
2012,Pioneer Natural Resources,Wavle 1205 #5,31.33925062,-101.6397839,1462878,Texas,Reagan
2012,COG Operating LLC,Cowden2 2,31.30307,-102.03365,1444981,Texas,Upton
2012,Rosetta Resources,Gates 05D  5-11,28.1053602,-99.7551667,4999153,Texas,Webb
2012,Rosetta Resources,Gates 05D  3-11,28.104623,-99.7572249,5528131,Texas,Webb
2012,Rosetta Resources,Gates 05D 4-11,28.1051069,-99.756002,4804081,Texas,Webb
2012,Johanson Oil,Walker 'B',29.2760445,-98.0456287,20000,Texas,Wilson
2012,"Walsh Petroleum, Inc.",Boyd B #2,33.1407,-102.955,147155,Texas,Yokaum
2012,Summit Petroleum LLC,Abbie Laine 3902,31.7381527,-102.1582112,1073781,Texas,Midland
2012,SandRidge Energy,University 13-45 #8,32.32618,-102.7444,135229,Texas,Andrews
2012,Legacy Reserves Operating LP,Ray 2602,31.71907,-101.35285,2645664,Texas,Glasscock
2012,"Laredo Petroleum, Inc.",South Boxcar 35,31.892301,-101.425627,2243977,Texas,Glasscock
2012,Energen Resources Corporation,Trinity -16-/Well No. 7,31.71821,-101.49426,612318,Texas,Glasscock
2012,"SV Energy Company, LLC",Peeler 4,28.57696,-98.4368,114660,Texas,Mc Mullen
2012,Endeavor Energy Resources,Fred Hall Unit #3,31.5812,-101.584,820936,Texas,Midland
2012,Energen Resources Corporation,North Westbrook Unit/Well No. 3604 (PA),32.4346,-101.03919,25704,Texas,Mitchell
2012,COG Operating LLC,Mann2 2,31.30586,-102.03894,1156214,Texas,Upton
2012,Pioneer Natural Resources,Stephens 9 #1,32.53926168,-102.0860482,639168,Texas,Dawson
2012,"Linn Energy, LLC",Gina #36L,31.83789,-102.33316,628793,Texas,Ector
2012,"Walsh & Watts, Inc.",Moss #26,31.7999881,-102.5787427,61572,Texas,Ector
2012,"Bluestem Energy Holdings, LLC","Ratliff ""B"" #3",31.8367853,-101.7121677,873852,Texas,Glasscock
2012,"Parsley Energy Operations, LLC",Hoelscher 46 #2,31.746344,-101.591498,2382366,Texas,Glasscock
2012,"Laredo Petroleum, Inc.",Lazy E 1402H,32.065971,-101.5681738,10790575,Texas,Glasscock
2012,Endeavor Energy Resources,Guitar 26 #5,32.1732,-101.4011,963870,Texas,Howard
2012,BHP Billiton Petroleum,WK Unit 12-1H,28.361381,-98.988814,2860536,Texas,La Salle
2012,"SV Energy Company, LLC",Peeler 3,28.58943,-98.43407,115920,Texas,Mc Mullen
2012,"Treadstone Energy Partners, LLC",Forrest 2H,31.99733333,-95.992,2062027,Texas,Madison
2012,Pioneer Natural Resources,Ellis 36A #3,32.310825,-101.7552526,1419437,Texas,Martin
2012,J CLEO THOMPSON,Houser 36 # 1,31.2276094,-103.379075,788847,Texas,Reeves
2012,Devon Energy Production Company L. P.,HAMPTON-SHOOP C SA `A` 1H,33.168399,-97.49749,3685584,Texas,Wise
2012,Devon Energy Production Company L. P.,HAMPTON-MCCURDY A SA `A` 1H,33.168344,-97.49749,9674280,Texas,Wise
2012,LCS Production Company,Naylor Jennings Sand Unit No. 6,31.78894,-99.66892,5040,Texas,Coleman
2012,Pioneer Natural Resources,Weyman 26 #12,31.88359985,-101.7091599,1393228,Texas,Glasscock
2012,"Nadel and Gussman Permian, LLC",Vaqueros 27 #2,31.859261,-101.304403,726264,Texas,Glasscock
2012,Diamondback E&P LLC,ST 40-6,31.97684,-102.213405,1336692,Texas,Midland
2012,"Texakoma Operating, L.P.",McMordie 126-3,35.9147,-100.665,437891,Texas,Roberts
2012,LCS Production Company,Corsica No.7,33.10972,-100.0444,59934,Texas,Stonewall
2012,Pioneer Natural Resources,University 3-10 #4,31.28051846,-101.831333,1447768,Texas,Upton
2012,COG Operating LLC,Txl T 27 5,31.53895,-102.14758,1558784,Texas,Upton
2012,Sanguine Gas Exploration,Doug 2024,35.1958,-100.0422,491636,Texas,Wheeler
2012,Anadarko Petroleum Corporation,CGU 14 52HH,32.18661801,-94.39209593,7884903,Texas,Panola
2012,"EOG Resources, Inc.",Midway D Unit #3,33.436936,-97.394072,141708,Texas,Cooke
2012,SandRidge Energy,GAU 27-12,31.8963,-102.62462,167442,Texas,Ector
2012,Pioneer Natural Resources,Kaylina 15 #1,32.02335289,-101.6923484,1497267,Texas,Glasscock
2012,BHP Billiton Petroleum,Pawelek A 1H,28.962925,-97.884776,4170264,Texas,Karnes
2012,"Carrizo Oil & Gas, Inc.",C4 Ranch  10H,28.464538,-99.036706,6132902,Texas,La Salle
2012,Anadarko Petroleum Corporation,Sevengills 54-1-31 6H,31.9136605,-103.6906894,2614241,Texas,Loving
2012,"Treadstone Energy Partners, LLC",Forrest 3H,31.16783333,-96.10733333,215962,Texas,Madison
2012,"FireWheel Operating, LLC",Horwood 2151H,31.8865151,-100.9407968,8155088,Texas,Sterling
2012,"Laredo Petroleum, Inc.",Schwartz 19-1,31.8146227,-101.557106,2701566,Texas,Glasscock
2012,SandRidge Energy,Thornberry 7N-17,32.25691,-102.715846,90167,Texas,Andrews
2012,SandRidge Energy,Anita 24,32.256639,-102.715472,88757,Texas,Andrews
2012,SandRidge Energy,McElreath 18,32.26464,-102.68044,88930,Texas,Andrews
2012,Approach Resources,Cinco Terry J 1003H,30.9093,-101.1275,274410,Texas,Crockett
2012,Endeavor Energy Resources,Martini #3,32.3835,-102.0222,58594,Texas,Dawson
2012,Sanchez Oil & Gas Corporation,Prost 1H,29.385053,-97.060451,5385414,Texas,Fayette
2012,Sanchez Oil & Gas Corporation,Prost 2H,29.647361,-97.101345,3380007,Texas,Fayette
2012,SandRidge Energy,Johnson WD 22S-8,31.83747,-103.54543,227498,Texas,Loving
2012,Endeavor Energy Resources,Pier 22 #2,32.1731,-102.0141,1053900,Texas,Martin
2012,"CrownQuest Operating, LLC",Grimes 1 #1,32.22791,-102.01505,1073646,Texas,Martin
2012,Energen Resources Corporation,Womack -A-/Well No. 2,32.45437,-101.05478,12894,Texas,Mitchell
2012,Energen Resources Corporation,Womack -A-/Well No. 3,32.45541,-101.05734,49980,Texas,Mitchell
2012,COG Operating LLC,PFU3 4222,31.61579017,-102.1428266,956084,Texas,Upton
2012,COG Operating LLC,Mabee 240B-204,32.292902,-102.276371,1753500,Texas,Andrews
2012,ConocoPhillips Company/Burlington Resources,FRASER 37-4,31.717186,-102.2891,728888,Texas,Ector
2012,"Walsh & Watts, Inc.",Parker 'B' #14,31.8183794,-102.575426,61572,Texas,Ector
2012,SandRidge Energy,Vee Bar 12 #2,31.94517,-102.6728,269988,Texas,Ector
2012,"EOG Resources, Inc.",Culpepper #1H,29.23936562,-97.5986917,413784,Texas,Gonzales
2012,"Linn Energy, LLC",Lindsay 9 9I,32.155996,-101.401262,934374,Texas,Howard
2012,"Trap Rock Oil, LTD.",La Brisa Ranch Partners 91 M8,26.4593,-98.6528,494004,Texas,Starr
2012,Summit Petroleum LLC,Cindy B 1316,31.5420119,-102.2272772,1258197,Texas,Upton
2012,RKI Exploration & Production,CBR 6A 44,31.988144,-103.891586,404669,Texas,Loving
2012,SandRidge Energy,CC Sentry #7,32.23562,-102.74251,82475,Texas,Andrews
2012,SandRidge Energy,CC Sentry #8,32.23535,-102.74242,86745,Texas,Andrews
2012,ConocoPhillips Company/Burlington Resources,Baros Unit A 1,29.181667,-97.49,4215357,Texas,De Witt
2012,Pioneer Natural Resources,Stone 46 #3,32.07825584,-101.682569,1486236,Texas,Glasscock
2012,Energen Resources Corporation,Daniel -2-/Well No. 1,31.74019,-101.56256,627102,Texas,Glasscock
2012,"Burk Royalty Co., LTD.",Goodwin 1,31.13712,-95.4268,648805,Texas,Houston
2012,BHP Billiton Petroleum,Pawelek A 2H,28.962956,-97.88472,4313568,Texas,Karnes
2012,BHP Billiton Petroleum,Gentry 3H,28.408252,-98.376293,3087630,Texas,McMullen
2012,Endeavor Energy Resources,Cosper 37 #6,32.0325,-101.5111,979838,Texas,Midland
2012,"Huntington Energy, L.L.C.",Courson 4H,36.15821,-100.76993,1531362,Texas,Ochiltree
2012,Pioneer Natural Resources,University 4-20 #2H,31.15842,-101.793506,8220739,Texas,Upton
2012,Pioneer Natural Resources,XBC Giddings Estate #3033,31.47061283,-101.9978486,1005382.863,Texas,Upton
2012,COG Operating LLC,Txl 9 6,31.57603,-102.18838,1401523,Texas,Upton
2012,Rosetta Resources,Gates 05D 6-11,28.093611,-99.0743851,6873150,Texas,Webb
2012,Energen Resources Corporation,West Fuhrman-Mascho Unit/Well No. 391 (PA),32.24161,-102.70391,28518,Texas,Andrews
2012,COG Operating LLC,University Camille 113,32.39217,-102.39187,2064430,Texas,Andrews
2012,SandRidge Energy,SFMU 5121,32.18789,-102.72092,96356,Texas,Andrews
2012,"Willowbend Investments, Inc.",Whitehead #83,31.08892,-99.80214,3041,Texas,Concho
2012,"Laredo Petroleum, Inc.",Ratliff 16-1,31.8599583,-101.4331083,2543670,Texas,Glasscock
2012,"New Gulf Resources, LLC",Lundy #1,31.1294,-95.5679,530922,Texas,Houston
2012,"Linn Energy, LLC",Fryar 5 5G,32.200107,-101.352541,435582,Texas,Howard
2012,RKI Exploration & Production,Robinson 5 31,31.99177,-103.88645,364478,Texas,Loving
2012,Pioneer Natural Resources,Slaughter 19C #1,32.46479649,-101.8414386,1021361,Texas,Martin
2012,Occidental Oil and Gas,Mustang 3407,32.24285,-102.240894,872649.6,Texas,Andrews
2012,Energen Resources Corporation,Craig/Well No. 6,31.7119,-101.39005,649614,Texas,Glasscock
2012,Pioneer Natural Resources,Lloyd 10 #1,32.04299051,-101.6954647,1525884,Texas,Glasscock
2012,BHP Billiton Petroleum,STS C 6H,28.348261,-98.751922,3630522,Texas,La Salle
2012,"Aztec Drilling & Operating, LLC",Aztec-Wilson P Unit 2 #11B,29.2077733,-99.0927559,19068,Texas,Medina
2012,Endeavor Energy Resources,TP Land Trust C # 1906,31.421,-102.0314,663362,Texas,Midland
2012,Pioneer Natural Resources,XBC Giddings Estate #3039,31.46392113,-101.9980701,1020184.863,Texas,Upton
2012,COG Operating LLC,TXL 45 8,31.4837,-102.14913,193246,Texas,Upton
2012,COG Operating LLC,TXL 45 8,31.4837,-102.14913,193246,Texas,Upton
2012,Anadarko Petroleum Corporation,CGU 14 51HH,32.18660337,-94.39214123,8168801,Texas,Panola
2012,COG Operating LLC,Pfluger M 307,31.50965,-101.26083,794262,Texas,Irion
2012,ConocoPhillips Company/Burlington Resources,University NG 6021H,31.127025,-101.750558,6369903,Texas,Reagan
2012,Devon Energy Production Company L. P.,"Wallace-Morris (SA) ""A"" #1H",33.160084,-97.489945,5762382,Texas,Wise
2012,"Carrizo Oil & Gas, Inc.",TG Unit 36H,28.654899,-98.425471,6909431,Texas,Atascosa
2012,"Jetta Operating Company, Inc",Worsham 6-15 #2H,31.338386,-103.323092,3057054,Texas,Reeves
2012,Rosetta Resources,Gates 05D 8-11,28.1073889,-99.7510664,2355335,Texas,Webb
2012,Rosetta Resources,Gates 05D 7-11,28.1066474,-99.7528075,2379468,Texas,Webb
2012,"Linn Energy, LLC",Reed 31 10H,35.50245,-100.18065,6673863,Texas,Wheeler
2012,Devon Energy Production Company L. P.,T.D. RICHARDS 1,33.3,-97.24,471488,Texas,Denton
2012,Pioneer Natural Resources,Glass 7 #17,32.20102193,-102.051702,1425265,Texas,Martin
2012,Pioneer Natural Resources,Abraxas 31A #2,32.44085249,-101.8470952,1119780,Texas,Martin
2012,Energen Resources Corporation,Womack -A-/Well No. 5,32.45407,-101.06309,47880,Texas,Mitchell
2012,3-M Energy Corporation,Pettit 14A #4,31.4513702,-101.6005308,435498,Texas,Reagan
2012,Chevron USA Inc.,Four Corners TXL Fee 2314U,31.64226111,-102.2872139,1016088,Texas,Upton
2012,Devon Energy Production Company L. P.,PETERSON-SPAIN `B` SA 1H,33.082411,-97.444219,6094662,Texas,Wise
2012,SandRidge Energy,Ranch 5N-2,32.2687966,-102.733704,84645,Texas,Andrews
2012,SandRidge Energy,University 1801 #4,32.42478,-102.66866,68376,Texas,Andrews
2012,ConocoPhillips Company/Burlington Resources,Embar 74,32.06655,-102.67145,229663,Texas,Ector
2012,Devon Energy Production Company L. P.,Mathers Ranch 4,35.53298,-100.13235,820790,Texas,Hemphill
2012,Pioneer Natural Resources,Trinity 37 #3,32.21341592,-101.7027809,1413425,Texas,Martin
2012,"CrownQuest Operating, LLC",LNE 9 #3,32.3647,-101.90233,1069866,Texas,Martin
2012,"CrownQuest Operating, LLC",Schenecker 18A #4,32.17463,-102.03402,1001406,Texas,Martin
2012,"Aztec Drilling & Operating, LLC",Aztec-Wilson P Unit 2 #12B,29.2085921,-99.0927428,16128,Texas,Medina
2012,"Aztec Drilling & Operating, LLC",Aztec-Wilson P Unit 2 #13B,29.2094172,-99.0927295,17220,Texas,Medina
2012,"Aztec Drilling & Operating, LLC",Aztec-Wilson P Unit 2 #16B,29.2077793,-99.0946368,17136,Texas,Medina
2012,"Parsley Energy Operations, LLC",Dusek 45 #5,31.655114,-101.998158,1698221,Texas,Midland
2012,Energen Resources Corporation,Shirley -B-/Well No. 3815R,31.83611,-102.26183,640290,Texas,Midland
2012,Energen Resources Corporation,Womack -A-/Well No. 4,32.45365,-101.05679,30072,Texas,Mitchell
2012,"Holmes Exploration, LLC",Jack Russell 917-4HM,36.348034,-100.659592,1460767,Texas,Ochiltree
2012,Endeavor Energy Resources,Ricker D #3,31.333,-101.3036,1060924,Texas,Reagan
2012,3-M Energy Corporation,Haby 13 #3,31.4582889,-101.5846974,745752,Texas,Reagan
2012,J CLEO THOMPSON,Peck State 258 #1,31.306134,-103.511767,759066,Texas,Reeves
2012,Steller Energy & Investment Corp,Cousins #2,31.99756,-101.19074,1509532,Texas,Sterling
2012,OSBORN HEIRS COMPANY,Ella 209,31.2931,-102.13383,981191,Texas,Upton
2012,COG Operating LLC,Neal Ranch 46 C 16,31.48746,-102.13883,1061882,Texas,Upton
2012,SandRidge Energy,WH Bush B 30,32.30384,-102.74185,97144,Texas,Andrews
2012,Pioneer Natural Resources,Vaughan-Lenn 36 #3,31.70525544,-102.3927072,1136454,Texas,Ector
2012,COG Operating LLC,Sugg 3069 2,31.34191,-100.91924,220122,Texas,Irion
2012,"Aztec Drilling & Operating, LLC",Aztec-Wilson P Unit 2 #14B,29.2094812,-99.0948948,17850,Texas,Medina
2012,"Aztec Drilling & Operating, LLC",Aztec-Wilson P Unit 2 #15B,29.2086038,-99.0949371,18984,Texas,Medina
2012,"Linn Energy, LLC",Russell #32,35.9991726,-101.6441815,59000,Texas,Hutchinson
2012,Anadarko Petroleum Corporation,Kudu UNIT 1,30.85833,-96.555,1222368,Texas,Robertson
2012,Bridwell Oil Company,Bridwell Archer Ranch -Q- 7,33.4414,-98.5514,1000,Texas,Archer
2012,"Sandalwood Exploration, LP",R W Thompson #1,29.99976,-96.12015,24693,Texas,Austin
2012,Approach Resources,Cinco Terry L 1802,30.8363,-101.1333,1522584,Texas,Crockett
2012,"Raw Oil & Gas, Inc.",DARRELL,32.91704,-101.79893,18943,Texas,Dawson
2012,ConocoPhillips Company/Burlington Resources,Frisbie Unit A #1,29.059931,-97.608103,3585791,Texas,De Witt
2012,"Laredo Petroleum, Inc.",Lacy Creek 24 #2,31.737089,-101.341845,2170931,Texas,Glasscock
2012,COG Operating LLC,Sugg 3069 7,31.34361,-100.9157,183918,Texas,Irion
2012,Occidental Oil and Gas,Mabee Ranch 139 911,32.181208,-102.179044,752580,Texas,Martin
2012,Pioneer Natural Resources,McAdams 10 #4,32.27712991,-101.7541292,1481593,Texas,Martin
2012,"Dallas Production, Inc",Ryan 1H,32.745193,-98.212037,41958,Texas,Palo Pinto
2012,Energen Resources Corporation,Barbee/Well No. 1,31.65105,-101.35854,606690,Texas,Reagan
2012,3-M Energy Corporation,Haby 13 #2,31.4615314,-101.5857078,785232,Texas,Reagan
2012,J CLEO THOMPSON,Chevron Minerals 29 #4,31.2412291,-103.4552581,772833.7666,Texas,Reeves
2012,COG Operating LLC,TXL 43 7,31.47331,-102.19121,276045,Texas,Upton
2012,"Linn Energy, LLC",Reed 31 13H,35.5341,-100.17658,4238871,Texas,Wheeler
2012,"Texas Energy Holdings, Inc.",KMA Unit 62,33.9286915,-98.8120936,91602,Texas,Wichita
2012,SandRidge Energy,McCasland 1,32.55363,-103.02987,175182,Texas,Gaines
2012,"Bluestem Energy Holdings, LLC",Brunson #5,31.86195,-101.72444,914256,Texas,Glasscock
2012,"Price Operating, LLC",Tumlinson Landcastle #6,30.7616114,-97.0212723,18900,Texas,Milam
2012,"Price Operating, LLC",Tumlinson Landcastle #7,30.7624361,-97.0212553,18900,Texas,Milam
2012,"Price Operating, LLC",Tumlinson Landcastle #8,30.7632617,-97.0212388,18900,Texas,Milam
2012,"Price Operating, LLC",Tumlinson Landcastle #9,30.7640855,-97.0212206,18900,Texas,Milam
2012,"Price Operating, LLC",Tumlinson Landcastle #10,30.7649113,-97.0212042,18900,Texas,Milam
2012,ConocoPhillips Company/Burlington Resources,University NG 6021H,31.127025,-101.750762,6369903,Texas,Reagan
2012,Walter Exploration Company,Walter Smith Unit #21,33.0334719,-100.1961723,32004,Texas,Stonewall
2012,Pioneer Natural Resources,University 4-20 #3H,31.159307,-101.795608,8047521,Texas,Upton
2012,SandRidge Energy,University 17-6 2,32.60822,-103.17283,80716,Texas,Ward
2012,Energen Resources Corporation,West Fuhrman-Mascho Unit/Well No. 295 (PA),32.23877,-102.70753,37170,Texas,Andrews
2012,"Linn Energy, LLC",Allar 37 37C,32.31759169,-101.7475783,932820,Texas,Martin
2012,Pioneer Natural Resources,Sale Ranch C #7,32.21631576,-101.9218884,1262428,Texas,Martin
2012,Pioneer Natural Resources,Hopper 36 #7,32.31624591,-101.8290304,1283138,Texas,Martin
2012,"Carrizo Oil & Gas, Inc.",Glover 11H Stage,28.654536,-98.414632,6373315,Texas,Atascosa
2012,Chevron USA Inc.,Dollarhide Unit 27-22C,32.15994,-103.05082,141583,Texas,Andrews
2012,Chevron USA Inc.,Dollarhide Unit 23-05CT,32.16012056,-103.0284003,146407,Texas,Andrews
2012,Apache Corporation,Three Bar Shallow Unit 105H,32.144,-102.819,6898735,Texas,Andrews
2012,"Laredo Petroleum, Inc.",Lacy Creek 36 #1,31.718153,-101.322685,2170138,Texas,Glasscock
2012,"Laredo Petroleum, Inc.",LPI-Glass 34 #1,31.79837138,-101.4930703,2704412,Texas,Glasscock
2012,"Laredo Petroleum, Inc.",LPI-Hoch 29 #1,31.79538472,-101.536718,2793857,Texas,Glasscock
2012,Chevron USA Inc.,"Scharbauer, C. JR. 4216M",31.85750278,-102.1151278,887675,Texas,Midland
2012,Callon Petroleum Operating Company,Neal #651H,31.3003,-101.994,8500000,Texas,Upton
2012,"Linn Energy, LLC",Reed 31 11H,35.48937,-100.22029,4877292,Texas,Wheeler
2012,ConocoPhillips Company/Burlington Resources,University Andrews 210,32.12972778,-102.721581,318781,Texas,Andrews
2012,SandRidge Energy,CC Cities Service A 10,32.2335,-102.7477,72634,Texas,Andrews
2012,SandRidge Energy,Parker C 15,32.19859,-102.72683,44268,Texas,Andrews
2012,SandRidge Energy,Leona C 4,32.2226,-102.7307,88536,Texas,Andrews
2012,SandRidge Energy,University 6N-10,32.1906,-102.7368,115287,Texas,Andrews
2012,"Laredo Petroleum, Inc.",Bearkat 904H,31.878132,-101.4278338,7688826,Texas,Glasscock
2012,Legacy Reserves Operating LP,Ray 2701,31.71889,-101.35787,2645664,Texas,Glasscock
2012,"CrownQuest Operating, LLC",VS Trust #1,31.9883,-101.61547,1171170,Texas,Glasscock
2012,"Silver Creek Oil & Gas, LLC",GC Scarborough 6H,33.754556,-96.873675,3036091,Texas,Grayson
2012,"Linn Energy, LLC",Yates Unit 20K,32.33683,-101.82599,587274,Texas,Martin
2012,Henry Resources LLC,Casselman 10 #28,32.04614,-102.22032,1103659.492,Texas,Midland
2012,Endeavor Energy Resources,Mashburn #5,32.0351,-101.8373,1056000,Texas,Midland
2012,Energen Resources Corporation,Womack -C-/Well No. 1,32.45113,-101.05958,55524,Texas,Mitchell
2012,3-M Energy Corporation,Haby 13 #1,31.4606468,-101.5898163,599340,Texas,Reagan
2012,"Parsley Energy Operations, LLC",Morgan `A` 3,31.41674,-101.9292416,338146,Texas,Upton
2012,Devon Energy Production Company L. P.,TROXELL-KELLEY SA 1H,33.08936,-97.45265,4191810,Texas,WISE
2012,SandRidge Energy,Leona D #8,32.21825,-102.73464,110734,Texas,Andrews
2012,Approach Resources,University 45D 905H,30.9738,-101.2412,11808552,Texas,Crockett
2012,"Juno Operating Company II, LLC",Wheeler-1046 #4658,33.525862,-101.496778,76120,Texas,Crosby
2012,COG Operating LLC,Ratliff B 1611,32.008231,-102.323652,1749594,Texas,Ector
2012,Range Resources Corporation,Edmonson A 3630,31.726167,-101.315111,151014,Texas,Glasscock
2012,Energen Resources Corporation,Frio/Well No. 4,31.68243,-101.45639,648312,Texas,Glassock
2012,"CrownQuest Operating, LLC",Parks 17 #2,32.23141,-101.691375,979356,Texas,Howard
2012,Navidad Resources LLC,FSPU 8-2,30.9621,-95.6938,1809486,Texas,Houston
2012,Pioneer Natural Resources,Abraxas 16 #1,32.48076356,-101.8376824,1366240,Texas,Martin
2012,Pioneer Natural Resources,Abraxas 16 #1,32.48076356,-101.8376824,1366240,Texas,Martin
2012,COBRA OIL & GAS CORPORATION,Davis-Baker Unit #1,32.4420829,-101.6941965,1362893,Texas,Martin
2012,Endeavor Energy Resources,Morris 8 #2,32.2419,-101.4311,995790,Texas,Martin
2012,SandRidge Energy,University Cons. IV 3007,32.35306,-102.80446,239022,Texas,Andrews
2012,SandRidge Energy,Argo Knight #21,32.249005,-102.74469,82519,Texas,Andrews
2012,COG Operating LLC,University Ruth 403,32.37334,-102.44977,1564802,Texas,Andrews
2012,SandRidge Energy,MA Thornberry Cons. I #58,32.2776,-102.6987,87271,Texas,Andrews
2012,"Parsley Energy Operations, LLC",Hoelscher 46 #3,31.750731,-101.579662,2159472,Texas,Glasscock
2012,"CrownQuest Operating, LLC",Wilkinson Ranch #331,32.32189,-101.66998,1013460,Texas,Howard
2012,COG Operating LLC,Sugg 3069 7,31.34361,-100.9157,183918,Texas,Irion
2012,"Aztec Drilling & Operating, LLC",Aztec Woods B #2B,29.1860755,-99.0612534,37128,Texas,Medina
2012,"Aztec Drilling & Operating, LLC",Aztec Woods B #1B,29.1869836,-99.0613542,35616,Texas,Medina
2012,Pioneer Natural Resources,Teinert B #2,31.92235243,-101.994456,548814,Texas,Midland
2012,Henry Resources LLC,Casselman 40 #37,32.07683,-102.21835,1554488.598,Texas,Midland
2012,Chevron USA Inc.,Scharbauer C. JR. 4216M,31.85750278,-102.1151278,846489,Texas,Midland
2012,Energen Resources Corporation,Womack -A-/Well No. 6,32.45146,-101.06705,42294,Texas,Mitchell
2012,Endeavor Energy Resources,Ricker 27 #7,31.3333,-101.3026,1074204,Texas,Reagan
2012,Endeavor Energy Resources,Ricker 27 #5,31.3351,-101.3103,1047954,Texas,Reagan
2012,"Holmes Exploration, LLC",McGarraugh 2H,36.0416231,-100.9078642,1767612,Texas,Roberts
2012,Devon Energy Production Company L. P.,Eden 11-8H,35.60544528,-100.1936006,8378976,Texas,Wheeler
2012,"Linn Energy, LLC",Huff 32-7H,35.48896,-100.16491,5447345,Texas,Wheeler
2012,COG Operating LLC,Mabee 240B-902,32.273017,-102.279469,1922004,Texas,Andrews
2012,SandRidge Energy,University 6N-12,32.19212,-102.74173,70140,Texas,Andrews
2012,ConocoPhillips Company/Burlington Resources,Koehler Unit A 1,29.092442,-97.571586,2682120,Texas,De Witt
2012,SandRidge Energy,TXL 44-43 #23,31.87603,-102.62801,140743,Texas,Ector
2012,"Royalty Land & Dev. Co., Inc.",Lois Blalock #B708,31.9317261,-101.6985377,1654746,Texas,Glasscock
2012,Devon Energy Production Company L. P.,McPhail  Gas Unit 1H,32.65488,-94.48802,10034234,Texas,Harrison
2012,COG Operating LLC,Halcomb 28 1,31.28911,-100.9832,378743,Texas,Irion
2012,Endeavor Energy Resources,Apple #2,32.1426,-101.4152,699490,Texas,Martin
2012,"CrownQuest Operating, LLC",Armstrong 36 #2,31.77584,-102.01021,1148490,Texas,Midland
2012,"Linn Energy, LLC",Fryar 4-4N,32.32821,-101.57501,12182,Texas,Howard
2012,Pioneer Natural Resources,Baumann E #8,31.9573889,-102.005744,1478011,Texas,Midland
2012,Pioneer Natural Resources,XBC Giddings Estate #4046,31.45764251,-101.9416228,1377855,Texas,Upton
2012,COG Operating LLC,Pegasus Field Unit 3 4910,31.60248,-102.14043,856976,Texas,Upton
2012,Newfield Exploration,LUNSFORD 3-9H,35.559528,-100.276167,2959706,Texas,Wheeler
2012,Devon Energy Production Company L. P.,PATTERSON M L GU A 8,33.10852,-97.51392,949872,Texas,WISE
2012,"Linn Energy, LLC",Morrison 1033H,35.48905,-100.4545,5099512,Texas,Wheeler
2012,Terrace Energy,Swift 2H,31.33214,-95.68285,2662514,Texas,Leon
2012,Pioneer Natural Resources,University 1-30 #2H,31.2004767,-101.769308,9246264,Texas,Reagan
2012,Rosetta Resources,Gates 05D 11-11,28.094056,-99.736893,7481781,Texas,Webb
2012,Rosetta Resources,Gates 05D  9-11,28.1086485,-99.7507811,2308533,Texas,Webb
2012,Rosetta Resources,Gates 05D 10-11,28.1091816,-99.7495897,2247557,Texas,Webb
2012,ConocoPhillips Company/Burlington Resources,University Andrews 122,32.13321,-102.72724,37123,Texas,Andrews
2012,SandRidge Energy,MA Thornberry Et al Est. NWS #14,32.266501,-102.68775,84083,Texas,Andrews
2012,SandRidge Energy,Parker C 12,32.19952,-102.72851,39144,Texas,Andrews
2012,Energen Resources Corporation,Daniel -14-/Well No. 1,31.71078,-101.56229,670488,Texas,Glasscock
2012,Devon Energy Production Company L. P.,Sharon McCaffity 4H,32.278896,-97.5041283,6155511,Texas,Johnson
2012,"Linn Energy, LLC",Allar 37 37D,32.315125,-101.7528476,865443,Texas,Martin
2012,"Parsley Energy Operations, LLC",Robason 18 #1,32.492646,-102.03976,2635794,Texas,Martin
2012,Energen Resources Corporation,North Westbrook Unit/Well No. 2415W,32.43952,-101.04717,41580,Texas,Mitchell
2012,Devon Energy Production Company L. P.,HELMS L V 3,33.1693,-97.45069,1016190,Texas,WISE
2012,Anadarko Petroleum Corporation,CGU 6 55HH,32.18374899,-94.36138315,7092630,Texas,Panola
2012,SandRidge Energy,University 13-1 1,32.43012,-102.73089,28182,Texas,Andrews
2012,SandRidge Energy,University 6-21,32.18737,-102.73454,83534,Texas,Andrews
2012,SandRidge Energy,University 6N-14,32.19226,-102.73519,78960,Texas,Andrews
2012,"Killam Oil Co., Ltd.",Williams Trust #1,28.514773,-98.510405,22386,Texas,Frio
2012,"CrownQuest Operating, LLC",Raymond Eula #2,32.38301,-101.63321,1115604,Texas,Howard
2012,Pioneer Natural Resources,Schmidt Family 02 01H,28.598733,-98.089508,3016734,Texas,Live Oak
2012,COG Operating LLC,Mabee 239-421,32.257449,-102.167765,1694280,Texas,Martin
2012,Endeavor Energy Resources,Hale Viola #2,32.264,-101.4653,869640,Texas,Martin
2012,Energen Resources Corporation,North Westbrook Unit/Well No. 2172W,32.42816,-101.05792,30395,Texas,Mitchell
2012,J CLEO THOMPSON,Merrian 17 #1,31.2062379,-103.4550628,781998,Texas,Reeves
2012,"Linn Energy, LLC",Huff 32 8H,35.48841,-100.15173,5557906,Texas,Wheeler
2012,"Linn Energy, LLC",Huff 32 9H,35.48795,-100.14938,6587452,Texas,Wheeler
2012,Sanguine Gas Exploration,Bass 8059H,35.2433,-100.042,2648044,Texas,Wheeler
2012,Sanguine Gas Exploration,Bass 9059H,35.2433,-100.0421,2630896,Texas,Wheeler
2012,Devon Energy Production Company L. P.,Eden 11-6H,35.61,-100.19,8360377,Texas,Wheeler
2012,Devon Energy Production Company L. P.,BRYAN-ASKEY GAS UNIT 7,33.12713,-97.41423,1093344,Texas,WISE
2012,Summit Petroleum LLC,Carolyn 8609R,31.367427,-102.058829,1345298,Texas,Upton
2012,Anadarko Petroleum Corporation,Byrd 34-170 Unit 1H,31.4908184,-103.3435768,1266934,Texas,Ward
2012,"Linn Energy, LLC",Morrison 1133H,35.48895,-100.13811,7470894,Texas,Wheeler
2012,Henry Resources LLC,Bohannon 26 #13,32.10555,-102.26576,1615698,Texas,Andrews
